{"version": 0.6, "generator": "Overpass API 0.7.62.7 375dc00a", "osm3s": {"timestamp_osm_base": "2025-07-19T09:53:10Z", "copyright": "The data included in this document is from www.openstreetmap.org. The data is made available under ODbL."}, "elements": [{"type": "node", "id": 1261572077, "lat": 7.4448185, "lon": 125.8134893, "tags": {"amenity": "cafe", "name": "Green Coffee"}}, {"type": "node", "id": 1585294657, "lat": 7.4410224, "lon": 125.8053359}, {"type": "node", "id": 1585294660, "lat": 7.4411524, "lon": 125.8051593}, {"type": "node", "id": 1585294661, "lat": 7.4412556, "lon": 125.8055105}, {"type": "node", "id": 1585294662, "lat": 7.4413856, "lon": 125.8053338}, {"type": "node", "id": 4180253189, "lat": 7.4489076, "lon": 125.8055791, "tags": {"addr:barangay": "Magugpo Poblacion", "addr:city": "Tagum City", "addr:postcode": "8100", "addr:province": "Davao del Norte", "addr:street": "Quezon Street", "amenity": "cafe", "name": "Hello Kitty Coffe Shop"}}, {"type": "node", "id": 4457623293, "lat": 7.4390017, "lon": 125.807545, "tags": {"addr:street": "Macario Bermudez", "amenity": "cafe", "name": "Xie Xie", "name:en": "Xie Xie"}}, {"type": "node", "id": 4458783989, "lat": 7.4632169, "lon": 125.7906835, "tags": {"amenity": "cafe", "name": "Ligan Internet Cafe"}}, {"type": "node", "id": 5954314985, "lat": 7.4436959, "lon": 125.8053255, "tags": {"amenity": "cafe", "name": "Sweetdreams"}}, {"type": "node", "id": 6410276688, "lat": 7.4466705, "lon": 125.8019176, "tags": {"addr:street": "Arellano", "amenity": "cafe", "name": "Destiny's Hub"}}, {"type": "node", "id": 6442555027, "lat": 7.4604616, "lon": 125.7979779}, {"type": "node", "id": 6442555028, "lat": 7.4603937, "lon": 125.7979759}, {"type": "node", "id": 6442555029, "lat": 7.4603951, "lon": 125.7979245}, {"type": "node", "id": 6513095587, "lat": 7.4468408, "lon": 125.7996724, "tags": {"addr:street": "Yakal", "amenity": "cafe", "name": "Green Coffee"}}, {"type": "node", "id": 7194490085, "lat": 7.4472044, "lon": 125.8223022, "tags": {"amenity": "cafe", "name": "Mug Caffeta"}}, {"type": "node", "id": 8329289990, "lat": 7.448917, "lon": 125.8120695, "tags": {"amenity": "cafe", "cuisine": "pastries;pasta", "name": "Euro Baker"}}, {"type": "node", "id": 8329562074, "lat": 7.4504431, "lon": 125.8126484, "tags": {"amenity": "cafe", "name": "Macao Imperial Tea"}}, {"type": "node", "id": 8332913073, "lat": 7.4486479, "lon": 125.8037032, "tags": {"addr:city": "Tagum City", "addr:postcode": "8100", "addr:province": "Davao del Norte", "addr:street": "Quezon Street", "amenity": "cafe", "name": "Warehouse Cafe"}}, {"type": "node", "id": 8332920140, "lat": 7.448157, "lon": 125.8037706, "tags": {"addr:city": "Tagum City", "addr:postcode": "8100", "addr:province": "Davao del Norte", "addr:street": "Rizal Street", "amenity": "cafe", "name": "Green Coffee"}}, {"type": "node", "id": 8370989508, "lat": 7.4517963, "lon": 125.815548, "tags": {"addr:city": "Tagum City", "addr:postcode": "8100", "addr:street": "Mendicor", "amenity": "cafe", "name": "Tsokolate Ni Eyay", "opening_hours": "unknown"}}, {"type": "node", "id": 8637295017, "lat": 7.4370649, "lon": 125.8227329, "tags": {"addr:postcode": "8100", "addr:street": "Capitol Circumferential Road", "amenity": "cafe", "name": "Fisher\u2019s Cafe"}}, {"type": "node", "id": 9472880517, "lat": 7.4570396, "lon": 125.8161824, "tags": {"amenity": "cafe", "name": "The Bangerz Bistro"}}, {"type": "node", "id": 9859443617, "lat": 7.460463, "lon": 125.7979265}, {"type": "node", "id": 10279179784, "lat": 7.4387944, "lon": 125.8198178, "tags": {"addr:city": "Tagum", "addr:street": "Surigao-Davao Coastal Road", "amenity": "cafe", "name": "Sabroso Cafe Bistro", "source:name": "interpolation", "source_ref": "https://osm.org/note/3485406"}}, {"type": "node", "id": 10654569652, "lat": 7.3932039, "lon": 125.7669025, "tags": {"addr:city": "Tagum City", "addr:postcode": "8100", "addr:province": "Davao del Norte", "addr:street": "National Highway", "amenity": "cafe", "name": "Vicky's Cafe"}}, {"type": "node", "id": 10660947622, "lat": 7.4957039, "lon": 125.8397498, "tags": {"amenity": "cafe", "name": "Shanksbucks Cafe"}}, {"type": "node", "id": 10813972806, "lat": 7.3923598, "lon": 125.7664883, "tags": {"amenity": "cafe", "cuisine": "coffee_shop", "name": "Hilaiza's"}}, {"type": "node", "id": 11359696569, "lat": 7.4419779, "lon": 125.8260117, "tags": {"amenity": "cafe", "cuisine": "coffee_shop", "name": "The Turq Cafe"}}, {"type": "node", "id": 11359723569, "lat": 7.4594204, "lon": 125.8158208, "tags": {"amenity": "cafe", "cuisine": "coffee_shop", "name": "Coffee Maybe", "opening_hours": "Mo-Su 10:00-21:00"}}, {"type": "node", "id": 11826551781, "lat": 7.4398214, "lon": 125.8186342, "tags": {"amenity": "cafe", "name": "Psalms Coffee"}}, {"type": "way", "id": 145079047, "nodes": [1585294657, 1585294660, 1585294662, 1585294661, 1585294657], "tags": {"amenity": "cafe", "brand": "Starbucks", "brand:wikidata": "Q37158", "building": "yes", "cuisine": "coffee_shop", "name": "Starbucks", "official_name": "Starbucks Coffee", "takeaway": "yes"}}, {"type": "way", "id": 687322925, "nodes": [9859443617, 6442555027, 6442555028, 6442555029, 9859443617], "tags": {"addr:barangay": "Magugpo West", "amenity": "cafe", "building": "yes", "name": "Kanoffee", "takeaway": "only"}}]}