{"version": 0.6, "generator": "Overpass API 0.7.62.7 375dc00a", "osm3s": {"timestamp_osm_base": "2025-07-19T10:06:10Z", "copyright": "The data included in this document is from www.openstreetmap.org. The data is made available under ODbL."}, "elements": [{"type": "node", "id": 353942124, "lat": 34.2599805, "lon": -118.3152399, "tags": {"amenity": "cafe", "name": "Backdoor Bakery"}}, {"type": "node", "id": 440621215, "lat": 34.1017216, "lon": -118.3373325, "tags": {"addr:city": "Hollywood Place", "addr:housenumber": "6745", "addr:postcode": "90028", "addr:state": "CA", "addr:street": "Hollywood Boulevard", "amenity": "cafe", "branch": "Hollywood & McCadden", "brand": "Starbucks", "brand:wikidata": "Q37158", "cuisine": "coffee_shop", "name": "Starbucks", "official_name": "Starbucks Coffee", "opening_hours": "Mo-Sa 05:00-22:00; Su 05:00-20:00", "phone": "+1 323-467-5534", "ref": "9009", "takeaway": "yes", "website": "https://www.starbucks.com/store-locator/store/9009/hollywood-mc-cadden-6745-hollywood-blvd-hollywood-ca-900284604-us"}}, {"type": "node", "id": 464745074, "lat": 34.0645693, "lon": -118.2181096, "tags": {"amenity": "cafe", "name": "Barbara's", "opening_hours": "Tu-Sa 11:00-22:00; Su 10:00-20:00"}}, {"type": "node", "id": 470897912, "lat": 34.0406343, "lon": -118.2696008, "tags": {"amenity": "cafe", "brand": "Starbucks", "brand:wikidata": "Q37158", "cuisine": "coffee_shop", "name": "Starbucks", "official_name": "Starbucks Coffee", "takeaway": "yes"}}, {"type": "node", "id": 471255273, "lat": 34.0480163, "lon": -118.2617582, "tags": {"amenity": "cafe", "brand": "Corner Bakery", "brand:wikidata": "Q5171598", "cuisine": "coffee_shop", "name": "Corner Bakery", "takeaway": "yes"}}, {"type": "node", "id": 471255297, "lat": 34.0486352, "lon": -118.258366, "tags": {"addr:city": "Los Angeles", "addr:housenumber": "731", "addr:postcode": "90017", "addr:state": "CA", "addr:street": "West 7th Street", "amenity": "cafe", "cuisine": "coffee_shop;sandwich", "name": "Marie's Coffee & Deli", "opening_hours": "Mo-Fr 07:00-15:00", "outdoor_seating": "no", "phone": "+12136225283", "website": "https://mariescoffeedeli.com/home"}}, {"type": "node", "id": 566762873, "lat": 34.0705686, "lon": -118.4433778, "tags": {"amenity": "cafe", "name": "Kerckhoff Coffee House"}}, {"type": "node", "id": 594171613, "lat": 34.121259, "lon": -118.206804, "tags": {"addr:city": "Los Angeles", "addr:housenumber": "5000", "addr:postcode": "90042", "addr:street": "York Boulevard", "amenity": "cafe", "cuisine": "coffee_shop", "name": "Cafe de Leche", "opening_hours": "Mo-Su 07:00-16:00", "outdoor_seating": "yes", "phone": "+1 323 551-6828", "website": "https://www.cafedeleche.net/"}}, {"type": "node", "id": 595747755, "lat": 34.1578394, "lon": -118.4132217, "tags": {"addr:city": "Studio City", "addr:country": "US", "addr:housenumber": "12851", "addr:postcode": "91607", "addr:state": "CA", "addr:street": "Riverside Drive", "amenity": "cafe", "check_date": "2024-04-11", "contact:facebook": "hugosrestaurant", "contact:instagram": "hugosrestaurants", "contact:twitter": "hugosrestaurant", "cuisine": "american", "diet:vegan": "yes", "diet:vegetarian": "yes", "gluten_free": "yes", "name": "Hugo's", "opening_hours": "Mo-Su 08:00-21:00", "payment:cash": "yes", "payment:credit_cards": "yes", "payment:debit_cards": "yes", "phone": "(818) 761-8985", "source": "survey;yahoo_imagery", "website": "https://www.hugosrestaurant.com/"}}, {"type": "node", "id": 609065118, "lat": 34.0614545, "lon": -118.306404, "tags": {"addr:city": "Los Angeles", "addr:housenumber": "3680", "addr:postcode": "90010", "addr:state": "CA", "addr:street": "Wilshire Boulevard", "addr:unit": "102", "amenity": "cafe", "branch": "Serrano & Wilshire", "brand": "Starbucks", "brand:wikidata": "Q37158", "cuisine": "coffee_shop", "name": "Starbucks", "official_name": "Starbucks Coffee", "phone": "+1 213-383-5370", "ref": "15618", "source": "survey;image;usgs_imagery", "source_ref": "AM909_DSCR0466", "takeaway": "yes", "website": "https://www.starbucks.com/store-locator/store/15618/serrano-wilshire-3680-wilshire-blvd-102-los-angeles-ca-900102709-us"}}, {"type": "node", "id": 610178476, "lat": 34.0630316, "lon": -118.2722924, "tags": {"addr:city": "Los Angeles", "addr:housenumber": "230", "addr:postcode": "90057", "addr:state": "CA", "addr:street": "Alvarado Street", "amenity": "cafe", "branch": "Alvarado & 3rd", "brand": "Starbucks", "brand:wikidata": "Q37158", "cuisine": "coffee_shop", "internet_access": "wlan", "name": "Starbucks", "official_name": "Starbucks Coffee", "phone": "+1 213-434-1379", "takeaway": "yes", "website": "https://www.starbucks.com/store-locator/store/1023630/alvarado-3rd-230-s-alvarado-los-angeles-ca-900572306-us"}}, {"type": "node", "id": 614956135, "lat": 34.1020084, "lon": -118.186436, "tags": {"amenity": "cafe", "name": "Cycleway Coffee"}}, {"type": "node", "id": 614990288, "lat": 34.0212898, "lon": -118.2824417, "tags": {"amenity": "cafe", "name": "Trojan Grounds (Starbucks)", "opening_hours": "Mo-Su 00:00-24:00"}}, {"type": "node", "id": 616429286, "lat": 34.1389047, "lon": -118.2138722, "tags": {"addr:city": "Los Angeles", "addr:housenumber": "2160", "addr:postcode": "90041", "addr:state": "CA", "addr:street": "Colorado Boulevard", "amenity": "cafe", "cuisine": "cafe", "internet_access": "yes", "internet_access:fee": "no", "name": "Unincorporated Coffee Roasters", "opening_hours": "Mo-Su 06:00-18:00", "outdoor_seating": "yes", "website": "https://unincorporated.coffee/"}}, {"type": "node", "id": 616923792, "lat": 34.0624267, "lon": -118.2358012, "tags": {"addr:city": "Los Angeles", "addr:housenumber": "130", "addr:postcode": "90012", "addr:street": "West Bruno Street", "amenity": "cafe", "brand": "Homeboy Industries", "brand:wikidata": "Q1625961", "brand:wikipedia": "https://en.wikipedia.org/wiki/Homeboy_Industries", "check_date": "2025-07-16", "contact:yelp": "https://www.yelp.com/biz/homegirl-cafe-los-angeles-4", "name": "Homegirl Cafe", "phone": "+1 (213) 617-0380", "website": "https://homeboyindustries.org/social-enterprises/cafe/", "wheelchair": "yes"}}, {"type": "node", "id": 664153976, "lat": 34.1020949, "lon": -118.3362729, "tags": {"amenity": "cafe", "name": "Cafe Audrey"}}, {"type": "node", "id": 672908896, "lat": 34.0624873, "lon": -118.4473927, "tags": {"addr:city": "Los Angeles", "addr:housenumber": "10955", "addr:postcode": "90024", "addr:state": "CA", "addr:street": "West Weyburn", "amenity": "cafe", "branch": "Broxton & Weyburn", "brand": "Starbucks", "brand:wikidata": "Q37158", "cuisine": "coffee_shop", "name": "Starbucks", "official_name": "Starbucks Coffee", "phone": "+1 310-209-1626", "ref": "13351", "takeaway": "yes", "website": "https://www.starbucks.com/store-locator/store/13351/broxton-weyburn-10955-west-weyburn-los-angeles-ca-900242811-us", "wheelchair": "limited"}}, {"type": "node", "id": 679520105, "lat": 34.1017294, "lon": -118.3382697, "tags": {"amenity": "cafe", "name": "Snow White Cafe", "opening_hours": "Su-Th 12:00-24:00, Fr,Sa 12:00-02:00"}}, {"type": "node", "id": 693968270, "lat": 34.1274023, "lon": -118.2122839, "tags": {"amenity": "cafe", "name": "The Green Bean"}}, {"type": "node", "id": 732741444, "lat": 34.0624774, "lon": -118.345318, "tags": {"addr:city": "Los Angeles", "addr:housenumber": "5353", "addr:postcode": "90036", "addr:state": "CA", "addr:street": "Wilshire Boulevard", "amenity": "cafe", "branch": "Detroit & Wilshire", "brand": "Starbucks", "brand:wikidata": "Q37158", "cuisine": "coffee_shop", "name": "Starbucks", "official_name": "Starbucks Coffee", "phone": "+1 323-939-2071", "takeaway": "yes", "website": "https://www.starbucks.com/store-locator/store/7232/detroit-wilshire-5353-wilshire-blvd-los-angeles-ca-900364284-us"}}, {"type": "node", "id": 902322536, "lat": 34.1098325, "lon": -118.287797, "tags": {"addr:city": "Los Angeles", "addr:housenumber": "2081", "addr:postcode": "90027", "addr:state": "CA", "addr:street": "Hillhurst Avenue", "amenity": "cafe", "brand": "The Coffee Bean & Tea Leaf", "brand:wikidata": "Q1141384", "cuisine": "coffee_shop", "internet_access": "yes", "name": "The Coffee Bean & Tea Leaf", "opening_hours": "Mo-Th 05:30-23:00; Fr 05:30-24:00; Sa 06:00-24:00; Su 06:00-23:00", "phone": "+1-323-913-3457", "takeaway": "yes", "website": "https://www.coffeebean.com/"}}, {"type": "node", "id": 902322539, "lat": 34.10191, "lon": -118.291465, "tags": {"addr:city": "Los Angeles", "addr:housenumber": "1700", "addr:postcode": "90027", "addr:state": "CA", "addr:street": "North Vermont Avenue", "amenity": "cafe", "branch": "Vermont & Prospect", "brand": "Starbucks", "brand:wikidata": "Q37158", "cuisine": "coffee_shop", "internet_access": "wlan", "name": "Starbucks", "official_name": "Starbucks Coffee", "phone": "+1 323-662-7705", "takeaway": "yes", "website": "https://www.starbucks.com/store-locator/store/15113/vermont-prospect-1700-n-vermont-avenue-los-angeles-ca-900274306-us"}}, {"type": "node", "id": 957101362, "lat": 34.1428386, "lon": -118.3945366, "tags": {"amenity": "cafe", "name": "The Coffee Bean", "source": "survey"}}, {"type": "node", "id": 1028915996, "lat": 34.0668178, "lon": -118.4101526, "tags": {"addr:city": "Beverly Hills", "addr:housenumber": "9811", "addr:postcode": "90212", "addr:state": "CA", "addr:street": "South Santa Monica Boulevard", "amenity": "cafe", "branch": "Wilshire & Santa Monica", "brand": "Starbucks", "brand:wikidata": "Q37158", "cuisine": "coffee_shop", "name": "Starbucks", "official_name": "Starbucks Coffee", "phone": "+1 310-552-3133", "ref": "13341", "takeaway": "yes", "website": "https://www.starbucks.com/store-locator/store/13341/wilshire-santa-monica-9811-s-santa-monica-blvd-beverly-hills-ca-90212160"}}, {"type": "node", "id": 1028939687, "lat": 34.082072, "lon": -118.3788465, "tags": {"addr:city": "Los Angeles", "addr:housenumber": "8565", "addr:state": "CA", "addr:street": "Melrose Ave.", "amenity": "cafe", "name": "Urth Caff\u00e9 - \rMelrose", "opening_hours": "Mo-Th, Su 06:00-23:00; Fr, Sa 06:00-00:00", "phone": "+1-310-659-0628", "website": "https://www.urthcaffe.com/"}}, {"type": "node", "id": 1028939699, "lat": 34.0677999, "lon": -118.4064089, "tags": {"amenity": "cafe", "name": "Modigliani Cafe"}}, {"type": "node", "id": 1036344074, "lat": 34.098277, "lon": -118.3110997, "tags": {"addr:city": "Hollywood", "addr:housenumber": "5545", "addr:postcode": "90028", "addr:state": "CA", "addr:street": "West Sunset Boulevard", "addr:unit": "106", "amenity": "cafe", "branch": "Sunset Boulevard & Saint Andrews Place", "brand": "Starbucks", "brand:wikidata": "Q37158", "cuisine": "coffee_shop", "name": "Starbucks", "official_name": "Starbucks Coffee", "phone": "+1 323-962-4525", "ref": "9649", "takeaway": "yes", "website": "https://www.starbucks.com/store-locator/store/9649/sunset-blvd-st-andrews-place-5545-w-sunset-blvd-106-hollywood-ca-900288521-us"}}, {"type": "node", "id": 1036344156, "lat": 34.0983059, "lon": -118.3061605, "tags": {"amenity": "cafe", "name": "Windsor Donuts"}}, {"type": "node", "id": 1040764267, "lat": 34.0700464, "lon": -118.3508864, "tags": {"addr:city": "Los Angeles", "addr:housenumber": "5979", "addr:postcode": "90036", "addr:state": "CA", "addr:street": "West 3rd Street", "amenity": "cafe", "brand": "The Coffee Bean & Tea Leaf", "brand:wikidata": "Q1141384", "cuisine": "coffee_shop", "name": "The Coffee Bean & Tea Leaf", "outdoor_seating": "yes", "takeaway": "yes"}}, {"type": "node", "id": 1069655015, "lat": 34.0593278, "lon": -118.2360282, "tags": {"amenity": "cafe", "name": "The California Endowment Courtyard Cafe", "opening_hours": "Mo-Fr 07:30-15:00"}}, {"type": "node", "id": 1098290641, "lat": 34.0736918, "lon": -118.3233838, "tags": {"amenity": "cafe", "brand": "Peet's Coffee", "brand:wikidata": "Q1094101", "cuisine": "coffee_shop", "name": "Peet's Coffee", "takeaway": "yes"}}, {"type": "node", "id": 1098375972, "lat": 34.0749988, "lon": -118.3234084, "tags": {"addr:city": "Los Angeles", "addr:housenumber": "206", "addr:postcode": "90004", "addr:state": "CA", "addr:street": "North Larchmont", "amenity": "cafe", "branch": "Larchmont & Beverly", "brand": "Starbucks", "brand:wikidata": "Q37158", "cuisine": "coffee_shop", "name": "Starbucks", "official_name": "Starbucks Coffee", "phone": "+1 323-469-1081", "ref": "9035", "takeaway": "yes", "website": "https://www.starbucks.com/store-locator/store/9035/larchmont-beverly-206-north-larchmont-los-angeles-ca-900043707-us"}}, {"type": "node", "id": 1098391736, "lat": 34.074537, "lon": -118.3233798, "tags": {"amenity": "cafe", "name": "Sam's Bagels"}}, {"type": "node", "id": 1098396788, "lat": 34.0741657, "lon": -118.323907, "tags": {"amenity": "cafe", "brand": "The Coffee Bean & Tea Leaf", "brand:wikidata": "Q1141384", "cuisine": "coffee_shop", "name": "The Coffee Bean & Tea Leaf", "takeaway": "yes"}}, {"type": "node", "id": 1098404823, "lat": 34.0843522, "lon": -118.3269636, "tags": {"addr:city": "Los Angeles", "addr:housenumber": "727", "addr:postcode": "90038", "addr:state": "CA", "addr:street": "North Vine Street", "amenity": "cafe", "branch": "Pavilions Los Angeles 2229", "brand": "Starbucks", "brand:wikidata": "Q37158", "cuisine": "coffee_shop", "name": "Starbucks", "official_name": "Starbucks Coffee", "phone": "+1 323-461-4167", "ref": "16222", "takeaway": "yes", "website": "https://www.starbucks.com/store-locator/store/16222/pavilions-los-angeles-2229-727-n-vine-st-los-angeles-ca-900383713-us"}}, {"type": "node", "id": 1145238068, "lat": 34.1390734, "lon": -118.215246, "tags": {"addr:city": "Los Angeles", "addr:housenumber": "2218", "addr:postcode": "90041", "addr:state": "CA", "addr:street": "West Colorado Boulevard", "amenity": "cafe", "branch": "Colorado & Eagle Rock, Eagle R", "brand": "Starbucks", "brand:wikidata": "Q37158", "cuisine": "coffee_shop", "name": "Starbucks", "official_name": "Starbucks Coffee", "phone": "+1 323-349-0671", "ref": "15819", "takeaway": "yes", "website": "https://www.starbucks.com/store-locator/store/15819/colorado-eagle-rock-eagle-r-2218-w-colorado-blvd-los-angeles-ca-900411143-us"}}, {"type": "node", "id": 1233313357, "lat": 34.072565, "lon": -118.4503114, "tags": {"amenity": "cafe", "name": "Bruin Cafe", "wheelchair": "yes"}}, {"type": "node", "id": 1233313372, "lat": 34.0692289, "lon": -118.4430217, "tags": {"amenity": "cafe", "level": "5", "name": "Seasnet Cafe", "toilets:wheelchair": "no", "wheelchair": "yes"}}, {"type": "node", "id": 1419803138, "lat": 34.0310728, "lon": -118.4009784, "tags": {"addr:city": "Los Angeles", "addr:housenumber": "9824", "addr:postcode": "90034", "addr:state": "CA", "addr:street": "National Boulevard", "amenity": "cafe", "branch": "National & Castle Heights", "brand": "Starbucks", "brand:wikidata": "Q37158", "cuisine": "coffee_shop", "internet_access": "wlan", "name": "Starbucks", "official_name": "Starbucks Coffee", "phone": "+1 310-839-1483", "ref": "9247", "takeaway": "yes", "website": "https://www.starbucks.com/store-locator/store/9247/national-castle-heights-9824-national-blvd-los-angeles-ca-900342739-us"}}, {"type": "node", "id": 1472144012, "lat": 34.1788247, "lon": -118.5958461}, {"type": "node", "id": 1472144022, "lat": 34.1788571, "lon": -118.5957368}, {"type": "node", "id": 1472144023, "lat": 34.1788572, "lon": -118.595846}, {"type": "node", "id": 1472144044, "lat": 34.178969, "lon": -118.5957366}, {"type": "node", "id": 1472144045, "lat": 34.178968, "lon": -118.5958471}, {"type": "node", "id": 1472144049, "lat": 34.1790034, "lon": -118.595847}, {"type": "node", "id": 1472144050, "lat": 34.1790035, "lon": -118.5959701}, {"type": "node", "id": 1513006667, "lat": 34.1867524, "lon": -118.6242294, "tags": {"addr:city": "West Hills", "addr:housenumber": "22815", "addr:postcode": "91307", "addr:state": "CA", "addr:street": "Victory Boulevard", "addr:unit": "A", "amenity": "cafe", "branch": "Fallbrook & Victory", "brand": "Starbucks", "brand:wikidata": "Q37158", "cuisine": "coffee_shop", "name": "Starbucks", "official_name": "Starbucks Coffee", "phone": "+1 818-883-0567", "ref": "9304", "takeaway": "yes", "website": "https://www.starbucks.com/store-locator/store/9304/fallbrook-victory-22815-victory-blvd-a-west-hills-ca-913073953-us"}}, {"type": "node", "id": 1537567635, "lat": 34.1877801, "lon": -118.5992363, "tags": {"addr:city": "Woodland Hills", "addr:housenumber": "21504", "addr:postcode": "91367", "addr:state": "CA", "addr:street": "Victory Boulevard", "amenity": "cafe", "branch": "Victory & Canoga", "brand": "Starbucks", "brand:wikidata": "Q37158", "cuisine": "coffee_shop", "internet_access": "yes", "name": "Starbucks", "official_name": "Starbucks Coffee", "outdoor_seating": "yes", "phone": "+1 818-884-9418", "ref": "14702", "takeaway": "yes", "website": "https://www.starbucks.com/store-locator/store/14702/victory-canoga-21504-victory-blvd-woodland-hills-ca-913672423-us"}}, {"type": "node", "id": 1564024398, "lat": 34.0744303, "lon": -118.4423483, "tags": {"amenity": "cafe", "cuisine": "coffee_shop", "name": "Northern Lights"}}, {"type": "node", "id": 1564031080, "lat": 34.0759625, "lon": -118.440938, "tags": {"addr:housename": "Broad Art Center", "amenity": "cafe", "cuisine": "coffee", "internet_access": "wlan", "name": "Untitled Caf\u00e9", "phone": "+13102060720", "website": "http://legacy.asucla.ucla.edu/restaurants/hours.asp"}}, {"type": "node", "id": 1564041926, "lat": 34.0748497, "lon": -118.441283, "tags": {"addr:floor": "1", "amenity": "cafe", "cuisine": "coffee_shop", "internet_access": "wlan", "internet_access:fee": "no", "level": "0", "name": "Cafe 451", "outdoor_seating": "no", "smoking": "no"}}, {"type": "node", "id": 1564058356, "lat": 34.0737093, "lon": -118.4394346, "tags": {"amenity": "cafe", "cuisine": "coffee_shop", "internet_access": "wlan", "name": "Jimmy's Coffee House"}}, {"type": "node", "id": 1564094000, "lat": 34.0701867, "lon": -118.4439673, "tags": {"addr:floor": "A", "amenity": "cafe", "cuisine": "coffee_shop", "level": "1", "name": "Bruin Buzz"}}, {"type": "node", "id": 1584153811, "lat": 34.0453231, "lon": -118.260413, "tags": {"addr:housenumber": "645 (Suite #108)", "addr:postcode": "90015", "addr:street": "W. 9th St.", "amenity": "cafe", "brand": "The Coffee Bean & Tea Leaf", "brand:wikidata": "Q1141384", "cuisine": "coffee_shop", "name": "The Coffee Bean & Tea Leaf", "phone": "(213) 627-3816", "takeaway": "yes", "website": "https://www.coffeebean.com/"}}, {"type": "node", "id": 1706143203, "lat": 34.1647435, "lon": -118.374243, "tags": {"addr:city": "North Hollywood", "addr:housenumber": "5166", "addr:postcode": "91601", "addr:state": "CA", "addr:street": "Lankershim", "addr:unit": "A", "amenity": "cafe", "branch": "Lankershim & Magnolia", "brand": "Starbucks", "brand:wikidata": "Q37158", "cuisine": "coffee_shop", "internet_access": "wlan", "internet_access:fee": "no", "name": "Starbucks", "official_name": "Starbucks Coffee", "phone": "+1 818-487-9226", "takeaway": "yes", "website": "https://www.starbucks.com/store-locator/store/15922/lankershim-magnolia-5166-a-lankershim-blvd-north-hollywood-ca-91601379"}}, {"type": "node", "id": 1715711914, "lat": 34.0682957, "lon": -118.405292, "tags": {"amenity": "cafe"}}, {"type": "node", "id": 1770936966, "lat": 34.026787, "lon": -118.3718808, "tags": {"addr:city": "Los Angeles", "addr:housenumber": "3344", "addr:postcode": "90016", "addr:state": "CA", "addr:street": "South La Cienega Boulevard", "amenity": "cafe", "branch": "La Cienega & Jefferson", "brand": "Starbucks", "brand:wikidata": "Q37158", "cuisine": "coffee_shop", "name": "Starbucks", "official_name": "Starbucks Coffee", "phone": "+1 323-938-0821", "ref": "18674", "takeaway": "yes", "website": "https://www.starbucks.com/store-locator/store/18674/la-cienega-jefferson-3344-s-la-cienega-blvd-los-angeles-ca-900163115-us"}}, {"type": "node", "id": 1771061796, "lat": 34.0272116, "lon": -118.3928443, "tags": {"addr:city": "Los Angeles", "addr:housenumber": "8985", "addr:postcode": "90034", "addr:state": "CA", "addr:street": "Venice Boulevard", "addr:unit": "CB-2", "amenity": "cafe", "branch": "Venice & Culver", "brand": "Starbucks", "brand:wikidata": "Q37158", "cuisine": "coffee_shop", "name": "Starbucks", "official_name": "Starbucks Coffee", "phone": "+1 310-558-0407", "ref": "13312", "takeaway": "yes", "website": "https://www.starbucks.com/store-locator/store/13312/venice-culver-8985-venice-blvd-ste-cb-2-los-angeles-ca-900343344"}}, {"type": "node", "id": 1830411804, "lat": 34.0981891, "lon": -118.3297193, "tags": {"amenity": "cafe", "name": "greenwork"}}, {"type": "node", "id": 1840693411, "lat": 33.7793052, "lon": -118.309127, "tags": {"addr:housename": "Starbucks", "addr:housenumber": "26650", "addr:postcode": "90710", "addr:street": "Western Ave # O", "amenity": "cafe", "brand": "Starbucks", "brand:wikidata": "Q37158", "cuisine": "coffee_shop", "internet_access": "wlan", "internet_access:fee": "no", "name": "Starbucks", "official_name": "Starbucks Coffee", "takeaway": "yes"}}, {"type": "node", "id": 1898409087, "lat": 34.0637237, "lon": -118.399308, "tags": {"amenity": "cafe", "brand": "The Coffee Bean & Tea Leaf", "brand:wikidata": "Q1141384", "cuisine": "coffee_shop", "name": "The Coffee Bean & Tea Leaf", "takeaway": "yes"}}, {"type": "node", "id": 1952112120, "lat": 34.0739067, "lon": -118.4437391, "tags": {"amenity": "cafe", "internet_access": "wlan", "internet_access:fee": "no", "level": "0", "name": "North Campus Shop", "opening_hours": "Mo-Fr 10:00-16:00", "payment:mastercard": "yes", "payment:visa": "yes", "wheelchair": "yes"}}, {"type": "node", "id": 1955171366, "lat": 34.0594135, "lon": -118.444746, "tags": {"addr:city": "Los Angeles", "addr:housenumber": "1161", "addr:postcode": "90024", "addr:state": "CA", "addr:street": "Westwood Boulevard", "amenity": "cafe", "branch": "Westwood & Lindbrook", "brand": "Starbucks", "brand:wikidata": "Q37158", "cuisine": "coffee_shop", "name": "Starbucks", "official_name": "Starbucks Coffee", "opening_hours": "Mo-Fr 04:30-21:30; Sa 05:00-20:30; Su 05:30-20:30", "phone": "+1 310-208-5505", "takeaway": "yes", "website": "https://www.starbucks.com/store-locator/store/9205/westwood-lindbrook-1161-westwood-blvd-los-angeles-ca-900243419-us"}}, {"type": "node", "id": 1956150294, "lat": 34.1104048, "lon": -118.2872908, "tags": {"addr:city": "Los Angeles", "addr:housenumber": "2118", "addr:postcode": "90027", "addr:state": "CA", "addr:street": "Hillhurst Avenue", "amenity": "cafe", "cuisine": "coffee;bakery", "name": "Cafe Los Feliz", "opening_hours": "Mo-Sa 07:00-18:00; Su 07:00-15:00", "phone": "+1-323-664-7111"}}, {"type": "node", "id": 1957158147, "lat": 34.0916276, "lon": -118.2798212, "tags": {"addr:city": "Los Angeles", "addr:housenumber": "3900", "addr:postcode": "90026", "addr:state": "CA", "addr:street": "Sunset Boulevard", "amenity": "cafe", "brand": "La Colombe Coffee Roasters", "brand:wikidata": "Q23461663", "check_date": "2024-09-30", "check_date:opening_hours": "2023-03-13", "cuisine": "coffee_shop", "name": "La Colombe Coffee Roasters", "opening_hours": "Mo-Fr 06:30-19:00; Sa-Su 07:00-19:00", "phone": "+1-323-375-5370", "short_name": "La Colombe", "takeaway": "yes", "website": "https://www.lacolombe.com"}}, {"type": "node", "id": 1996096482, "lat": 34.0648599, "lon": -118.398915, "tags": {"addr:city": "Beverly Hills", "addr:housenumber": "202", "addr:postcode": "90212", "addr:state": "CA", "addr:street": "South Beverly Drive", "amenity": "cafe", "branch": "South Beverly & Charleville", "brand": "Starbucks", "brand:wikidata": "Q37158", "cuisine": "coffee_shop", "name": "Starbucks", "official_name": "Starbucks Coffee", "phone": "+1 310-271-2133", "ref": "16545", "takeaway": "yes", "website": "https://www.starbucks.com/store-locator/store/16545/s-beverly-charleville-202-south-beverly-drive-beverly-hills-ca-902123805"}}, {"type": "node", "id": 2134181443, "lat": 34.1050774, "lon": -118.3306101, "tags": {"amenity": "cafe", "cuisine": "coffee_shop", "name": "Solar de Cahuenga", "opening_hours": "Mo-Su 08:00-16:00"}}, {"type": "node", "id": 2164946875, "lat": 34.101337, "lon": -118.3412439, "tags": {"amenity": "cafe", "brand": "The Coffee Bean & Tea Leaf", "brand:wikidata": "Q1141384", "cuisine": "coffee_shop", "name": "The Coffee Bean & Tea Leaf", "takeaway": "yes", "website": "https://www.coffeebean.com/"}}, {"type": "node", "id": 2165194439, "lat": 34.1011908, "lon": -118.329709, "tags": {"amenity": "cafe", "cuisine": "pizza", "name": "Greco's New York Pizzeria", "opening_hours": "Mo-Fr 11:00-22:00; Sa-Su 12:00-22:00", "phone": "(323) 465-2000", "website": "http://www.californiawingscafe.info/"}}, {"type": "node", "id": 2165685719, "lat": 34.1008064, "lon": -118.3269315, "tags": {"addr:housenumber": "1635", "addr:postcode": "90028", "addr:street": "Vine Street", "amenity": "cafe", "check_date": "2024-10-07", "contact:facebook": "https://www.facebook.com/photos/", "contact:twitter": "https://twitter.com/10forwardcoffee", "name": "Ten Forward Coffee and Tea Lounge", "opening_hours": "Mo-Fr 6:45-23:00; Sa 9:00-23:00; Su 9:00-22:00", "phone": "+1 323-871-4104", "website": "http://www.10forwardcoffee.com/"}}, {"type": "node", "id": 2168596081, "lat": 34.052811, "lon": -118.2570048, "tags": {"amenity": "cafe", "brand": "Starbucks", "brand:wikidata": "Q37158", "cuisine": "coffee_shop", "name": "Starbucks", "official_name": "Starbucks Coffee", "takeaway": "yes"}}, {"type": "node", "id": 2329493333, "lat": 34.0482955, "lon": -118.4911815, "tags": {"amenity": "cafe", "brand": "Blue Bottle Coffee", "brand:en": "Blue Bottle Coffee", "brand:ja": "\u30d6\u30eb\u30fc\u30dc\u30c8\u30eb\u30b3\u30fc\u30d2\u30fc", "brand:wikidata": "Q4928917", "cuisine": "coffee_shop", "name": "Blue Bottle Coffee", "name:en": "Blue Bottle Coffee", "name:ja": "\u30d6\u30eb\u30fc\u30dc\u30c8\u30eb\u30b3\u30fc\u30d2\u30fc", "opening_hours": "Mo-Su 06:00-16:00", "takeaway": "yes"}}, {"type": "node", "id": 2329493334, "lat": 34.0483124, "lon": -118.491081, "tags": {"amenity": "cafe", "brand": "Le Pain Quotidien", "brand:wikidata": "Q2046903", "cuisine": "coffee_shop", "name": "Le Pain Quotidien", "takeaway": "yes"}}, {"type": "node", "id": 2359467065, "lat": 34.0614636, "lon": -118.446453, "tags": {"addr:housenumber": "1055", "addr:postcode": "90024", "addr:street": "Broxton Avenue", "amenity": "cafe", "brand": "Sharetea", "brand:wikidata": "Q64827032", "cuisine": "bubble_tea", "name": "Sharetea", "name:en": "Sharetea", "name:zh": "\u6b47\u8173\u4ead", "takeaway": "yes"}}, {"type": "node", "id": 2363521780, "lat": 34.0602729, "lon": -118.4467449, "tags": {"addr:housenumber": "1099", "addr:postcode": "90024", "addr:street": "Gayley Avenue", "amenity": "cafe", "name": "Elysee", "website": "https://www.elyseebakery.com/"}}, {"type": "node", "id": 2379629473, "lat": 34.0627171, "lon": -118.444967, "tags": {"addr:city": "Los Angeles", "addr:housenumber": "950", "addr:postcode": "90024", "addr:state": "CA", "addr:street": "Westwood Boulevard", "amenity": "cafe", "name": "Bluestone Lane", "opening_hours": "Mo-Fr 06:30-15:30; Sa,Su 06:30-15:00"}}, {"type": "node", "id": 2382244880, "lat": 34.0511371, "lon": -118.365371, "tags": {"amenity": "cafe", "cuisine": "sandwich", "internet_access": "wlan", "name": "Paper or Plastik Cafe", "website": "https://www.paperorplastikcafe.com/"}}, {"type": "node", "id": 2388978618, "lat": 34.0905944, "lon": -118.2771694, "tags": {"addr:city": "Los Angeles", "addr:housenumber": "1523", "addr:postcode": "90026", "addr:street": "Griffith Park Boulevard", "amenity": "cafe", "check_date": "2024-09-30", "contact:instagram": "https://www.instagram.com/coffeememes.coffee", "cuisine": "coffee_shop;Pastries", "image": "https://scontent.cdninstagram.com/v/t39.30808-6/426212214_18006559538512793_1344256055495673431_n.jpg?stp=dst-jpg_e15&efg=eyJ2ZW5jb2RlX3RhZyI6ImltYWdlX3VybGdlbi4xNDQweDEzMDguc2RyLmYzMDgwOC5kZWZhdWx0X2ltYWdlIn0&_nc_ht=scontent.cdninstagram.com&_nc_cat=105&", "internet_access": "wlan", "name": "Coffee Memes", "opening_hours": "Mo-Fr 07:00-18:00; Sa-Su 08:00-18:00", "outdoor_seating": "yes", "phone": "+1 323-407-6601", "takeaway": "yes"}}, {"type": "node", "id": 2399881192, "lat": 34.0705113, "lon": -118.444093, "tags": {"addr:floor": "1", "amenity": "cafe", "cuisine": "bubble_tea", "level": "2", "name": "Lollicup"}}, {"type": "node", "id": 2461987369, "lat": 33.9588619, "lon": -118.4482115, "tags": {"amenity": "cafe", "name": "Tanner's", "smoking": "no"}}, {"type": "node", "id": 2487341963, "lat": 34.105349, "lon": -118.3368528, "tags": {"addr:city": "Los Angeles", "addr:country": "US", "addr:housenumber": "1900", "addr:state": "CA", "addr:street": "Highland Avenue", "addr:suburb": "Hollywood", "amenity": "cafe", "brand": "Starbucks", "brand:wikidata": "Q37158", "cuisine": "coffee_shop", "name": "Starbucks", "official_name": "Starbucks Coffee", "takeaway": "yes"}}, {"type": "node", "id": 2531687813, "lat": 34.2335699, "lon": -118.552488, "tags": {"amenity": "cafe", "name": "Barclay's Coffee and Tea"}}, {"type": "node", "id": 2604732612, "lat": 34.0697992, "lon": -118.290693, "tags": {"addr:city": "Los Angeles", "addr:housenumber": "3461", "addr:postcode": "90020", "addr:state": "CA", "addr:street": "West 3rd Street", "amenity": "cafe", "branch": "Vons Los Angeles 2261", "brand": "Starbucks", "brand:wikidata": "Q37158", "cuisine": "coffee_shop", "name": "Starbucks", "official_name": "Starbucks Coffee", "phone": "+1 213-384-6552", "ref": "8885", "takeaway": "yes", "website": "https://www.starbucks.com/store-locator/store/8885/vons-los-angeles-2261-3461-w-3rd-st-los-angeles-ca-900201604-us"}}, {"type": "node", "id": 2615832157, "lat": 34.2845649, "lon": -118.441503}, {"type": "node", "id": 2622736411, "lat": 33.9794357, "lon": -118.4657732, "tags": {"addr:city": "Marina Del Rey", "addr:housenumber": "34", "addr:postcode": "90292", "addr:street": "Washington Boulevard", "amenity": "cafe", "check_date": "2024-02-27", "cuisine": "coffee_shop;sandwich;smoothie", "name": "The Cow's End Cafe", "opening_hours": "Mo-Th 06:00-18:00; Fr-Sa 06:00-19:00", "outdoor_seating": "yes", "source": "survey", "website": "http://thecowsendcafe.com/", "wheelchair": "no"}}, {"type": "node", "id": 2646113414, "lat": 34.1209347, "lon": -118.2065427}, {"type": "node", "id": 2646113416, "lat": 34.1212703, "lon": -118.2064504}, {"type": "node", "id": 2646113419, "lat": 34.1212883, "lon": -118.2065121}, {"type": "node", "id": 2646113421, "lat": 34.1212776, "lon": -118.2064903}, {"type": "node", "id": 2691929919, "lat": 34.1018734, "lon": -118.312438, "tags": {"addr:city": "Los Angeles", "addr:housenumber": "5625", "addr:postcode": "90028", "addr:state": "CA", "addr:street": "Hollywood Boulevard", "amenity": "cafe", "check_date": "2023-11-09", "currency:XBT": "yes", "internet_access": "wlan", "name": "Sabor y Cultura Caf\u00e9", "phone": "+1 323 466 0481", "website": "https://flavorandculture.wordpress.com/"}}, {"type": "node", "id": 2697735083, "lat": 34.0630654, "lon": -118.309299, "tags": {"amenity": "cafe", "name": "Caff\u00e9 Bene"}}, {"type": "node", "id": 2697735099, "lat": 34.0744594, "lon": -118.309334, "tags": {"addr:city": "Los Angeles", "addr:housenumber": "113", "addr:postcode": "90004", "addr:state": "CA", "addr:street": "North Western Avenue", "amenity": "cafe", "brand": "Tom N Toms", "brand:en": "Tom N Toms", "brand:ko": "\ud0d0\uc564\ud0d0\uc2a4", "brand:wikidata": "Q18142418", "cuisine": "coffee_shop;pretzel;smoothie;tea;bread", "name": "Tom N Toms", "takeaway": "yes"}}, {"type": "node", "id": 2707561686, "lat": 34.0393151, "lon": -118.5542048, "tags": {"amenity": "cafe", "name": "Signature Cafe"}}, {"type": "node", "id": 2707561693, "lat": 34.0391125, "lon": -118.554115, "tags": {"addr:city": "Pacific Palisades", "addr:housenumber": "17380", "addr:postcode": "90272", "addr:state": "CA", "addr:street": "Sunset Boulevard", "amenity": "cafe", "branch": "Vons Pacific Palisades 2266", "brand": "Starbucks", "brand:wikidata": "Q37158", "cuisine": "coffee_shop", "name": "Starbucks", "official_name": "Starbucks Coffee", "phone": "+1 310-454-2502", "ref": "20223", "takeaway": "yes", "website": "https://www.starbucks.com/store-locator/store/20223/vons-pacific-palisades-2266-17380-sunset-blvd-pacific-palisades-ca-902724102-u"}}, {"type": "node", "id": 2707749946, "lat": 33.9815679, "lon": -118.4090115, "tags": {"addr:city": "Los Angeles", "addr:housenumber": "12313", "addr:postcode": "90230", "addr:state": "CA", "addr:street": "Jefferson Boulevard", "amenity": "cafe", "branch": "Jefferson & Centinela", "brand": "Starbucks", "brand:wikidata": "Q37158", "cuisine": "coffee_shop", "indoor_seating": "yes", "internet_access": "wlan", "internet_access:fee": "customers", "name": "Starbucks", "official_name": "Starbucks Coffee", "opening_hours": "Mo-Fr 04:30-21:00; Sa-Su 05:00-21:00", "outdoor_seating": "yes", "payment:cards": "yes", "payment:cash": "yes", "payment:qr_code": "yes", "phone": "+1 310-823-3479", "smoking": "no", "takeaway": "yes", "website": "https://www.starbucks.com/store-locator/store/6747/jefferson-centinela-12313-jefferson-blvd-los-angeles-ca-902306225-us", "wheelchair": "yes"}}, {"type": "node", "id": 2715023548, "lat": 34.0618164, "lon": -118.3388852}, {"type": "node", "id": 2715023549, "lat": 34.0618448, "lon": -118.3389998}, {"type": "node", "id": 2715023553, "lat": 34.0619708, "lon": -118.3388294}, {"type": "node", "id": 2715023554, "lat": 34.0619715, "lon": -118.3389476}, {"type": "node", "id": 2791749179, "lat": 34.0197206, "lon": -118.4221949}, {"type": "node", "id": 2791749180, "lat": 34.0196132, "lon": -118.4221088}, {"type": "node", "id": 2791749181, "lat": 34.0196615, "lon": -118.422022}, {"type": "node", "id": 2791749182, "lat": 34.0197688, "lon": -118.4221081}, {"type": "node", "id": 2838988398, "lat": 34.157097, "lon": -118.60558, "tags": {"addr:city": "Woodland Hills", "addr:housenumber": "4900", "addr:postcode": "91364", "addr:state": "CA", "addr:street": "Topanga Canyon Boulevard", "amenity": "cafe", "branch": "Topanga Canyon & Dumetz", "brand": "Starbucks", "brand:wikidata": "Q37158", "cuisine": "coffee_shop", "internet_access": "wlan", "name": "Starbucks", "official_name": "Starbucks Coffee", "opening_hours": "Mo-Fr 05:30-19:00; Sa-Su 06:00-19:00", "outdoor_seating": "yes", "phone": "+1 818-704-1730", "takeaway": "yes", "website": "https://www.starbucks.com/store-locator/store/18669/topanga-canyon-dumetz-4900-topanga-canyon-blvd-woodland-hills-ca-9136431"}}, {"type": "node", "id": 2856312726, "lat": 34.0051, "lon": -118.331687, "tags": {"addr:housenumber": "4331", "addr:postcode": "90008", "amenity": "cafe", "contact:instagram": "oraenergy", "cuisine": "coffee_shop;tea", "internet_access": "wlan", "name": "Ora", "opening_hours": "Mo-Sa 08:00-20:00", "phone": "+1 323-903-6449"}}, {"type": "node", "id": 2857397990, "lat": 34.0048333, "lon": -118.33128, "tags": {"addr:city": "Los Angeles", "addr:housenumber": "4336", "addr:postcode": "90008", "addr:street": "Degnan Boulevard", "amenity": "cafe", "cuisine": "coffee_shop", "name": "Harun Coffee"}}, {"type": "node", "id": 2890444652, "lat": 33.9835049, "lon": -118.4565346, "tags": {"addr:city": "Marina Del Rey", "addr:housenumber": "4213", "addr:postcode": "90292", "addr:state": "CA", "addr:street": "Admiralty Way", "amenity": "cafe", "bar": "yes", "cuisine": "american;seafood", "name": "Killer Cafe", "opening_hours": "24/7", "outdoor_seating": "yes", "phone": "+1-310-578-2250", "website": "https://www.killershrimp.com"}}, {"type": "node", "id": 2894755518, "lat": 34.0579591, "lon": -118.3637572, "tags": {"addr:city": "Los Angeles", "addr:housenumber": "6066", "addr:postcode": "90036", "addr:state": "CA", "addr:street": "West Olympic Boulevard", "amenity": "cafe", "branch": "Fairfax & Olympic", "brand": "Starbucks", "brand:wikidata": "Q37158", "cuisine": "coffee_shop", "name": "Starbucks", "official_name": "Starbucks Coffee", "phone": "+1 323-634-7845", "ref": "14753", "takeaway": "yes", "website": "https://www.starbucks.com/store-locator/store/14753/fairfax-olympic-6066-west-olympic-boulevard-los-angeles-ca-9003644"}}, {"type": "node", "id": 2930473434, "lat": 34.1494258, "lon": -118.3788411, "tags": {"addr:city": "Studio City", "addr:housenumber": "4360", "addr:postcode": "91604", "addr:street": "Tujunga Avenue", "amenity": "cafe", "cuisine": "coffee_shop", "internet_access": "no", "name": "Aroma Coffee & Tea", "smoking": "no"}}, {"type": "node", "id": 3013312920, "lat": 34.1049593, "lon": -118.2916486, "tags": {"addr:city": "Los Angeles", "addr:housenumber": "1866", "addr:postcode": "90027", "addr:state": "CA", "addr:street": "North Vermont Avenue", "amenity": "cafe", "cuisine": "coffee_shop", "internet_access": "wlan", "name": "Bru Coffeebar", "opening_hours": "Mo-Su 07:00-20:00", "phone": "+1-323-664\u20137500", "website": "https://www.brucoffeebar.com/"}}, {"type": "node", "id": 3048357008, "lat": 33.9420367, "lon": -118.3972481, "tags": {"amenity": "cafe", "name": "Engine Co No 28"}}, {"type": "node", "id": 3060455016, "lat": 34.1097977, "lon": -118.192771, "tags": {"addr:housenumber": "5703", "addr:street": "N Figueroa Street", "amenity": "cafe", "cuisine": "latin_american", "internet_access": "yes", "name": "Antigua Bread"}}, {"type": "node", "id": 3083678349, "lat": 34.2209281, "lon": -118.5022055}, {"type": "node", "id": 3083678350, "lat": 34.2209294, "lon": -118.5021397}, {"type": "node", "id": 3083678351, "lat": 34.2209303, "lon": -118.5021397}, {"type": "node", "id": 3083678352, "lat": 34.2209369, "lon": -118.5019182}, {"type": "node", "id": 3083678354, "lat": 34.2209785, "lon": -118.5019591}, {"type": "node", "id": 3083678356, "lat": 34.2209798, "lon": -118.5019203}, {"type": "node", "id": 3083678357, "lat": 34.2210016, "lon": -118.5019603}, {"type": "node", "id": 3083678358, "lat": 34.221002, "lon": -118.5019495}, {"type": "node", "id": 3083678367, "lat": 34.2210376, "lon": -118.5022108}, {"type": "node", "id": 3083678368, "lat": 34.2210213, "lon": -118.5020665}, {"type": "node", "id": 3083678369, "lat": 34.2210424, "lon": -118.5020675}, {"type": "node", "id": 3139511234, "lat": 34.18899, "lon": -118.4552497}, {"type": "node", "id": 3139511237, "lat": 34.188813, "lon": -118.4552417}, {"type": "node", "id": 3139511238, "lat": 34.1888143, "lon": -118.4548174}, {"type": "node", "id": 3139536350, "lat": 34.1891473, "lon": -118.4548236}, {"type": "node", "id": 3139536351, "lat": 34.1891473, "lon": -118.4548944}, {"type": "node", "id": 3139536353, "lat": 34.189275, "lon": -118.4548262}, {"type": "node", "id": 3143527519, "lat": 34.0839326, "lon": -118.294756, "tags": {"addr:city": "Los Angeles", "addr:housenumber": "710", "addr:postcode": "90029", "addr:street": "North Heliotrope Drive", "amenity": "cafe", "cuisine": "coffee_shop", "name": "Ondo Coffee", "opening_hours": "08:00-15:00", "website": "https://ondocoffee.co"}}, {"type": "node", "id": 3150099608, "lat": 33.9463266, "lon": -118.390939, "tags": {"addr:city": "Los Angeles", "addr:housenumber": "5933", "addr:postcode": "90045", "addr:state": "CA", "addr:street": "West Century Boulevard", "amenity": "cafe", "branch": "Residence Inn LAX/Century Boul", "brand": "Starbucks", "brand:wikidata": "Q37158", "cuisine": "coffee_shop", "name": "Starbucks", "official_name": "Starbucks Coffee", "phone": "+1 310-568-7730", "ref": "1011655", "takeaway": "yes", "website": "https://www.starbucks.com/store-locator/store/9805/sheraton-gateway-hotel-6101-w-century-blvd-los-angeles-ca-900455310-us"}}, {"type": "node", "id": 3189210033, "lat": 33.9796599, "lon": -118.4654803}, {"type": "node", "id": 3189210034, "lat": 33.979548, "lon": -118.4653903}, {"type": "node", "id": 3189210035, "lat": 33.9796762, "lon": -118.4651585}, {"type": "node", "id": 3189210036, "lat": 33.9797881, "lon": -118.4652486}, {"type": "node", "id": 3223100409, "lat": 34.1724959, "lon": -118.4060933}, {"type": "node", "id": 3223100410, "lat": 34.1724748, "lon": -118.406169}, {"type": "node", "id": 3223100411, "lat": 34.1722917, "lon": -118.4061691}, {"type": "node", "id": 3223100412, "lat": 34.172418, "lon": -118.4060047}, {"type": "node", "id": 3223100413, "lat": 34.1724183, "lon": -118.4060602}, {"type": "node", "id": 3223100414, "lat": 34.1722915, "lon": -118.4060047}, {"type": "node", "id": 3230208662, "lat": 33.9914411, "lon": -118.4467097}, {"type": "node", "id": 3230208663, "lat": 33.9915136, "lon": -118.44653}, {"type": "node", "id": 3230208664, "lat": 33.9913587, "lon": -118.4464484}, {"type": "node", "id": 3230208665, "lat": 33.9912839, "lon": -118.4465977}, {"type": "node", "id": 3232179727, "lat": 34.0443939, "lon": -118.4676199}, {"type": "node", "id": 3232179728, "lat": 34.044539, "lon": -118.4674329}, {"type": "node", "id": 3232179729, "lat": 34.0445232, "lon": -118.467415}, {"type": "node", "id": 3232179730, "lat": 34.0445449, "lon": -118.467387}, {"type": "node", "id": 3232179731, "lat": 34.0444599, "lon": -118.4672908}, {"type": "node", "id": 3232179732, "lat": 34.0443023, "lon": -118.4674938}, {"type": "node", "id": 3232179733, "lat": 34.0443228, "lon": -118.4675171}, {"type": "node", "id": 3232179734, "lat": 34.0443136, "lon": -118.467529}, {"type": "node", "id": 3235183217, "lat": 34.1865368, "lon": -118.4134446}, {"type": "node", "id": 3235183218, "lat": 34.1865374, "lon": -118.4136089}, {"type": "node", "id": 3235183219, "lat": 34.1863577, "lon": -118.4136104}, {"type": "node", "id": 3235183220, "lat": 34.1863577, "lon": -118.413445}, {"type": "node", "id": 3235759702, "lat": 34.1054934, "lon": -118.3191015}, {"type": "node", "id": 3235759703, "lat": 34.1054953, "lon": -118.318867}, {"type": "node", "id": 3235759711, "lat": 34.1053758, "lon": -118.3188656}, {"type": "node", "id": 3277035045, "lat": 34.1187577, "lon": -118.1791324, "tags": {"addr:city": "Los Angeles", "addr:housenumber": "519", "addr:postcode": "90042", "addr:state": "CA", "addr:street": "N Avenue 64", "amenity": "cafe", "name": "Amara Kitchen", "opening_hours": "Mo-Su 08:00-16:00", "phone": "+13232552220", "smoking": "no", "website": "https://www.amarakitchen.com/"}}, {"type": "node", "id": 3277564338, "lat": 34.1797426, "lon": -118.4047091, "tags": {"amenity": "cafe", "cuisine": "donut", "name": "Lilly Cafe"}}, {"type": "node", "id": 3285369618, "lat": 34.2094058, "lon": -118.448415}, {"type": "node", "id": 3285369619, "lat": 34.2094054, "lon": -118.4486043}, {"type": "node", "id": 3285369621, "lat": 34.2096016, "lon": -118.4486277}, {"type": "node", "id": 3285369622, "lat": 34.2097014, "lon": -118.448628}, {"type": "node", "id": 3285369624, "lat": 34.2096136, "lon": -118.4481217}, {"type": "node", "id": 3285424880, "lat": 34.1724315, "lon": -118.447529, "tags": {"addr:city": "Van Nuys", "addr:housenumber": "14431", "addr:postcode": "91401", "addr:state": "CA", "addr:street": "Burbank Boulevard", "amenity": "cafe", "branch": "Burbank & Van Nuys", "brand": "Starbucks", "brand:wikidata": "Q37158", "cuisine": "coffee_shop", "name": "Starbucks", "official_name": "Starbucks Coffee", "phone": "+1 818-779-0347", "ref": "17685", "takeaway": "yes", "website": "https://www.starbucks.com/store-locator/store/17685/burbank-van-nuys-14431-burbank-blvd-van-nuys-ca-914014825-us"}}, {"type": "node", "id": 3297494613, "lat": 34.0515291, "lon": -118.2514177, "tags": {"addr:city": "Los Angeles", "addr:housenumber": "350", "addr:postcode": "90071", "addr:state": "CA", "addr:street": "South Grand Avenue", "addr:unit": "B-5", "amenity": "cafe", "branch": "Two Cal Plaza", "brand": "Starbucks", "brand:wikidata": "Q37158", "cuisine": "coffee_shop", "name": "Starbucks", "official_name": "Starbucks Coffee", "phone": "+1 213-626-0466", "ref": "16708", "source": "survey;bing_imagery", "source_ref": "The Temecula Mapper", "takeaway": "yes", "website": "https://www.starbucks.com/store-locator/store/16708/two-cal-plaza-350-south-grand-avenue-suite-b-5-los-angeles-ca-90"}}, {"type": "node", "id": 3368990234, "lat": 34.1363258, "lon": -118.189417, "tags": {"addr:city": "Los Angeles", "addr:housenumber": "7311", "addr:postcode": "90041", "addr:state": "CA", "addr:street": "Figueroa Street", "amenity": "cafe", "branch": "Vons Los Angeles 2655", "brand": "Starbucks", "brand:wikidata": "Q37158", "cuisine": "coffee_shop", "name": "Starbucks", "official_name": "Starbucks Coffee", "phone": "+1 323-254-5716", "takeaway": "yes", "website": "https://www.starbucks.com/store-locator/store/17741/vons-los-angeles-2655-7311-n-figueroa-st-los-angeles-ca-900412512-us"}}, {"type": "node", "id": 3386890107, "lat": 34.0480144, "lon": -118.2390974, "tags": {"addr:city": "Los Angeles", "addr:housenumber": "138", "addr:postcode": "90012", "addr:state": "CA", "addr:street": "South Central Avenue", "amenity": "cafe", "branch": "2nd & Central", "brand": "Starbucks", "brand:wikidata": "Q37158", "cuisine": "coffee_shop", "name": "Starbucks", "official_name": "Starbucks Coffee", "phone": "+1 213-613-0393", "ref": "11382", "takeaway": "yes", "website": "https://www.starbucks.com/store-locator/store/11382/2nd-central-138-s-central-avenue-los-angeles-ca-900123913-us"}}, {"type": "node", "id": 3418371421, "lat": 33.9824943, "lon": -118.4052594, "tags": {"amenity": "cafe", "name": "Big Mango Cafe"}}, {"type": "node", "id": 3418371422, "lat": 33.9790323, "lon": -118.4053528, "tags": {"amenity": "cafe", "name": "Hangar 19"}}, {"type": "node", "id": 3418373760, "lat": 33.9813709, "lon": -118.4144428, "tags": {"amenity": "cafe", "name": "Cabbage Patch"}}, {"type": "node", "id": 3418373764, "lat": 33.9729547, "lon": -118.42264, "tags": {"amenity": "cafe", "brand": "The Coffee Bean & Tea Leaf", "brand:wikidata": "Q1141384", "cuisine": "coffee_shop", "name": "The Coffee Bean & Tea Leaf", "takeaway": "yes"}}, {"type": "node", "id": 3448133704, "lat": 33.940117, "lon": -118.4098885, "tags": {"amenity": "cafe", "level": "4", "name": "Scoreboard LA"}}, {"type": "node", "id": 3448133706, "lat": 33.9406138, "lon": -118.4099781, "tags": {"amenity": "cafe", "brand": "Starbucks", "brand:wikidata": "Q37158", "cuisine": "coffee_shop", "level": "4", "name": "Starbucks", "official_name": "Starbucks Coffee", "takeaway": "yes"}}, {"type": "node", "id": 3449745087, "lat": 34.0390904, "lon": -118.2326722, "tags": {"addr:city": "Los Angeles", "addr:housenumber": "582", "addr:postcode": "90013", "addr:state": "CA", "addr:street": "Mateo Street", "amenity": "cafe", "brand": "Blue Bottle Coffee", "brand:wikidata": "Q4928917", "cuisine": "coffee_shop", "internet_access": "wlan", "internet_access:fee": "no", "name": "Blue Bottle Coffee", "takeaway": "yes"}}, {"type": "node", "id": 3472319865, "lat": 34.1510006, "lon": -118.4520629}, {"type": "node", "id": 3472319866, "lat": 34.1512946, "lon": -118.4519912}, {"type": "node", "id": 3472319867, "lat": 34.1513066, "lon": -118.4520649}, {"type": "node", "id": 3472319868, "lat": 34.1510148, "lon": -118.4521378}, {"type": "node", "id": 3472319883, "lat": 34.1512574, "lon": -118.452}, {"type": "node", "id": 3472383707, "lat": 34.1512588, "lon": -118.4520768}, {"type": "node", "id": 3567233817, "lat": 34.1450709, "lon": -118.4144843, "tags": {"amenity": "cafe", "cuisine": "coffee_shop", "name": "Coffee Bean"}}, {"type": "node", "id": 3577490879, "lat": 34.2145339, "lon": -118.4484706, "tags": {"addr:city": "Panorama City", "addr:housenumber": "7902", "addr:postcode": "91402", "addr:state": "CA", "addr:street": "Van Nuys Boulevard", "addr:unit": "B-2", "amenity": "cafe", "branch": "Van Nuys & Michaels", "brand": "Starbucks", "brand:wikidata": "Q37158", "cuisine": "coffee_shop", "name": "Starbucks", "official_name": "Starbucks Coffee", "phone": "+1 818-787-0904", "ref": "7779", "takeaway": "yes", "website": "https://www.starbucks.com/store-locator/store/7779/van-nuys-michaels-7902-van-nuys-blvd-b-2-panorama-city-ca-914026084-"}}, {"type": "node", "id": 3586925680, "lat": 34.1053698, "lon": -118.3188609}, {"type": "node", "id": 3586925681, "lat": 34.1053683, "lon": -118.3189874}, {"type": "node", "id": 3586925682, "lat": 34.1054683, "lon": -118.3189891}, {"type": "node", "id": 3586925683, "lat": 34.105467, "lon": -118.3190984}, {"type": "node", "id": 3690542639, "lat": 34.1645442, "lon": -118.4139953, "tags": {"amenity": "cafe", "cuisine": "donut", "name": "Donut Inn"}}, {"type": "node", "id": 3699296779, "lat": 33.9766329, "lon": -118.417592, "tags": {"addr:city": "Los Angeles", "addr:housenumber": "12746", "addr:postcode": "90094", "addr:state": "CA", "addr:street": "West Jefferson Boulevard", "addr:unit": "2150", "amenity": "cafe", "branch": "Runway & McConnell", "brand": "Starbucks", "brand:wikidata": "Q37158", "cuisine": "coffee_shop", "name": "Starbucks", "official_name": "Starbucks Coffee", "phone": "+1 213-393-2572", "takeaway": "yes", "website": "https://www.starbucks.com/store-locator/store/1008772/runway-mc-connell-12746-jefferson-blvd-2150-playa-vista-ca-900942776"}}, {"type": "node", "id": 3733661255, "lat": 34.1523875, "lon": -118.448527, "tags": {"amenity": "cafe", "cuisine": "donut"}}, {"type": "node", "id": 3758329250, "lat": 34.0857687, "lon": -118.32084, "tags": {"amenity": "cafe", "name": "Water Tower Market & Cafe"}}, {"type": "node", "id": 3763314215, "lat": 34.1737987, "lon": -118.3611766, "tags": {"addr:housenumber": "5668", "addr:postcode": "91601", "addr:street": "Cahuenga Boulevard", "amenity": "cafe", "internet_access": "wlan", "name": "Moby's Coffee & Tea", "opening_hours": "Mo-Fr 06:30-17:00; Sa-Su 07:00-17:00", "phone": "+1 818 579 4761"}}, {"type": "node", "id": 3785833193, "lat": 34.1858571, "lon": -118.604599, "tags": {"amenity": "cafe", "brand": "The Coffee Bean & Tea Leaf", "brand:wikidata": "Q1141384", "cuisine": "coffee_shop", "name": "The Coffee Bean & Tea Leaf", "takeaway": "yes"}}, {"type": "node", "id": 3807721020, "lat": 34.1909034, "lon": -118.604521, "tags": {"addr:city": "Canoga Park", "addr:housenumber": "6600", "addr:postcode": "91303", "addr:state": "CA", "addr:street": "Topanga Canyon Boulevard", "addr:unit": "49F", "amenity": "cafe", "branch": "Westfield Topanga - Level 1", "brand": "Starbucks", "brand:wikidata": "Q37158", "cuisine": "coffee_shop", "name": "Starbucks", "official_name": "Starbucks Coffee", "phone": "+1 818-999-2653", "ref": "16032", "takeaway": "yes", "website": "https://www.starbucks.com/store-locator/store/16032/westfield-topanga-level-1-6600-topanga-canyon-blvd-49-f-canoga-park-ca-91303"}}, {"type": "node", "id": 3807737614, "lat": 34.1786969, "lon": -118.603642, "tags": {"addr:city": "Woodland Hills", "addr:housenumber": "21850", "addr:postcode": "91367", "addr:state": "CA", "addr:street": "Oxnard Street", "amenity": "cafe", "branch": "Marriott Warner Center Lobby", "brand": "Starbucks", "brand:wikidata": "Q37158", "cuisine": "coffee_shop", "diet:vegan": "yes", "diet:vegetarian": "yes", "indoor_seating": "yes", "name": "Starbucks", "official_name": "Starbucks Coffee", "opening_hours": "Mo-Su 06:00-18:00", "outdoor_seating": "no", "phone": "+1 818-887-4800", "ref": "14240", "takeaway": "yes", "website": "https://www.starbucks.com/store-locator/store/14240/marriott-warner-center-lobby-21850-oxnard-st-woodland-hills-ca-913673631-us"}}, {"type": "node", "id": 3810143804, "lat": 34.0390615, "lon": -118.261117, "tags": {"amenity": "cafe", "brand": "Starbucks", "brand:wikidata": "Q37158", "cuisine": "coffee_shop", "name": "Starbucks", "official_name": "Starbucks Coffee", "takeaway": "yes"}}, {"type": "node", "id": 3815324756, "lat": 34.1941213, "lon": -118.601364, "tags": {"amenity": "cafe", "capacity": "20", "cuisine": "japanese", "description": "Japanese Tofu Rice Donuts (Gluten Free); Matcha Tea; Coffee", "name": "RING Baked Tofu Donuts, Sea Salt Coffee, Matcha Tea", "opening_hours": "Mo closed", "outdoor_seating": "patio", "smoking": "no", "takeaway": "yes", "website": "https://ringdonuts.com/"}}, {"type": "node", "id": 3825249399, "lat": 34.0837391, "lon": -118.3505421, "tags": {"amenity": "cafe", "name": "Blu Jam Cafe"}}, {"type": "node", "id": 3825249406, "lat": 34.0834576, "lon": -118.350986, "tags": {"addr:city": "Los Angeles", "addr:housenumber": "7384", "addr:postcode": "90046", "addr:street": "Melrose Avenue", "amenity": "cafe", "name": "Glass Hookah Lounge", "website": "https://glasshookahlounge.com/"}}, {"type": "node", "id": 3825249413, "lat": 34.083452, "lon": -118.3507267, "tags": {"addr:city": "Los Angeles", "addr:housenumber": "7376", "addr:postcode": "90046", "addr:street": "Melrose Avenue", "amenity": "cafe", "contact:phone": "+1-323-951-1007", "name": "La Creme Cafe", "website": "http://www.lacremecafela.com/"}}, {"type": "node", "id": 3827585044, "lat": 34.0838442, "lon": -118.3564912, "tags": {"amenity": "cafe", "name": "Yonada"}}, {"type": "node", "id": 3832225183, "lat": 34.1686467, "lon": -118.603289, "tags": {"amenity": "cafe", "brand": "The Coffee Bean & Tea Leaf", "brand:wikidata": "Q1141384", "cuisine": "coffee_shop", "name": "The Coffee Bean & Tea Leaf", "takeaway": "yes"}}, {"type": "node", "id": 3833300156, "lat": 34.0835038, "lon": -118.3561809, "tags": {"addr:city": "Los Angeles", "addr:housenumber": "7624", "addr:postcode": "90046", "addr:state": "CA", "addr:street": "Melrose Avenue", "amenity": "cafe", "branch": "Melrose & Stanley", "brand": "Starbucks", "brand:wikidata": "Q37158", "cuisine": "coffee_shop", "name": "Starbucks", "official_name": "Starbucks Coffee", "phone": "+1 323-852-9690", "ref": "11488", "takeaway": "yes", "website": "https://www.starbucks.com/store-locator/store/11488/melrose-stanley-7624-melrose-avenue-los-angeles-ca-900467420-us"}}, {"type": "node", "id": 3834333239, "lat": 34.1686044, "lon": -118.6159153, "tags": {"addr:city": "Woodland Hills", "addr:housenumber": "22435", "addr:postcode": "91364", "addr:state": "CA", "addr:street": "Ventura Boulevard", "addr:unit": "B", "amenity": "cafe", "branch": "Ventura & Shoup", "brand": "Starbucks", "brand:wikidata": "Q37158", "cuisine": "coffee_shop", "name": "Starbucks", "official_name": "Starbucks Coffee", "phone": "+1 818-992-1730", "ref": "10212", "takeaway": "yes", "website": "https://www.starbucks.com/store-locator/store/10212/ventura-shoup-22435-ventura-blvd-b-woodland-hills-ca-913641580-u"}}, {"type": "node", "id": 3834333243, "lat": 34.1676339, "lon": -118.6175037, "tags": {"amenity": "cafe", "coffee": "yes", "name": "Doan's Desserts and Coffee", "shop": "bakery"}}, {"type": "node", "id": 3839971772, "lat": 34.1692326, "lon": -118.6054837, "tags": {"addr:city": "Woodland Hills", "addr:housenumber": "5422", "addr:postcode": "91367", "addr:state": "CA", "addr:street": "Topanga Canyon Boulevard", "amenity": "cafe", "branch": "Topanga Canyon & Ventura", "brand": "Starbucks", "brand:wikidata": "Q37158", "cuisine": "coffee_shop", "name": "Starbucks", "official_name": "Starbucks Coffee", "phone": "+1 818-340-5053", "ref": "11957", "takeaway": "yes", "website": "https://www.starbucks.com/store-locator/store/11957/topanga-cyn-ventura-5422-topanga-canyon-blvd-woodland-hills-ca-9136763"}}, {"type": "node", "id": 3840429389, "lat": 34.2014096, "lon": -118.603873, "tags": {"addr:city": "Los Angeles", "addr:housenumber": "21825", "addr:postcode": "91303", "addr:state": "CA", "addr:street": "Sherman Way", "amenity": "cafe", "coffee": "yes", "contact:email": "cbesancon@followyourheart.com", "contact:facebook": "https://www.facebook.com/FollowYourHeartMarketCafe", "contact:instagram": "https://www.instagram.com/followyourheart", "description": "Oldest vegetarian restaurant in the United States.", "diet:lacto_vegetarian": "only", "diet:vegan": "yes", "diet:vegetarian": "yes", "name": "Follow Your Heart Cafe", "opening_hours": "08:00-21:00", "organic": "yes", "shop": "grocery", "website": "https://followyourheart.com/follow-your-heart-market-and-cafe/"}}, {"type": "node", "id": 3840429394, "lat": 34.202856, "lon": -118.597515}, {"type": "node", "id": 3840429395, "lat": 34.2028564, "lon": -118.59735}, {"type": "node", "id": 3840429396, "lat": 34.2027775, "lon": -118.597334}, {"type": "node", "id": 3840429397, "lat": 34.2027757, "lon": -118.597516}, {"type": "node", "id": 3840429402, "lat": 34.2011996, "lon": -118.6077087, "tags": {"amenity": "cafe", "music": "live", "name": "Cobalt Cafe"}}, {"type": "node", "id": 3847799482, "lat": 34.1726977, "lon": -118.5469889, "tags": {"amenity": "cafe", "brand": "Peet's Coffee", "brand:wikidata": "Q1094101", "cuisine": "coffee_shop", "name": "Peet's Coffee", "takeaway": "yes"}}, {"type": "node", "id": 3849945976, "lat": 34.0835725, "lon": -118.343201, "tags": {"amenity": "cafe", "name": "Hot Wings"}}, {"type": "node", "id": 3855965601, "lat": 33.9910884, "lon": -118.4669225, "tags": {"addr:city": "Venice", "addr:housenumber": "1331", "addr:postcode": "90291", "addr:state": "CA", "addr:street": "Abbot Kinney Boulevard", "amenity": "cafe", "name": "Intelligentsia Coffee", "name:zh": "Intelligentsia\u5496\u5561", "phone": "+1 310 399 1233", "website": "http://www.intelligentsiacoffee.com/location/venice-coffeebar"}}, {"type": "node", "id": 3870409368, "lat": 34.1850884, "lon": -118.605384, "tags": {"amenity": "cafe", "name": "Boulon d'Amour"}}, {"type": "node", "id": 3886657135, "lat": 34.1788249, "lon": -118.5959704}, {"type": "node", "id": 3886970467, "lat": 34.1845044, "lon": -118.6048259}, {"type": "node", "id": 3886970468, "lat": 34.1845737, "lon": -118.6048268}, {"type": "node", "id": 3886970469, "lat": 34.1845741, "lon": -118.6047831}, {"type": "node", "id": 3886970470, "lat": 34.1845048, "lon": -118.6047822}, {"type": "node", "id": 3887073555, "lat": 34.1750579, "lon": -118.5968955, "tags": {"amenity": "cafe", "name": "Coffee Bean"}}, {"type": "node", "id": 3888234368, "lat": 34.0576778, "lon": -118.2482621}, {"type": "node", "id": 3888234369, "lat": 34.0576984, "lon": -118.2482419}, {"type": "node", "id": 3888234370, "lat": 34.0577287, "lon": -118.2483377}, {"type": "node", "id": 3888234371, "lat": 34.0577493, "lon": -118.2483175}, {"type": "node", "id": 3939355451, "lat": 34.2024027, "lon": -118.6062457, "tags": {"amenity": "cafe", "cuisine": "donut"}}, {"type": "node", "id": 3949418895, "lat": 34.0238857, "lon": -118.3986805, "tags": {"amenity": "cafe", "brand": "The Coffee Bean & Tea Leaf", "brand:wikidata": "Q1141384", "cuisine": "coffee_shop", "drive_through": "yes", "name": "The Coffee Bean & Tea Leaf", "takeaway": "yes"}}, {"type": "node", "id": 3956135633, "lat": 34.1862014, "lon": -118.6239451, "tags": {"amenity": "cafe", "cuisine": "donut", "name": "Donuts"}}, {"type": "node", "id": 4008496489, "lat": 34.1669548, "lon": -118.5887094}, {"type": "node", "id": 4008496490, "lat": 34.1668094, "lon": -118.5887318}, {"type": "node", "id": 4008496491, "lat": 34.1667896, "lon": -118.5885293}, {"type": "node", "id": 4008496492, "lat": 34.1669687, "lon": -118.588504}, {"type": "node", "id": 4026590721, "lat": 34.0354538, "lon": -118.2341331, "tags": {"amenity": "cafe", "name": "Daily Dose"}}, {"type": "node", "id": 4043067030, "lat": 34.1042154, "lon": -118.2590369}, {"type": "node", "id": 4043067031, "lat": 34.1042152, "lon": -118.2589131}, {"type": "node", "id": 4043067032, "lat": 34.1041387, "lon": -118.2588048}, {"type": "node", "id": 4043067033, "lat": 34.104041, "lon": -118.258806}, {"type": "node", "id": 4043067034, "lat": 34.1040415, "lon": -118.2590475}, {"type": "node", "id": 4064504887, "lat": 34.2507414, "lon": -118.6063101, "tags": {"addr:city": "Topanga-Lassen Plaza", "addr:housenumber": "9935", "addr:postcode": "91311", "addr:state": "CA", "addr:street": "Topanga Canyon Boulevard", "amenity": "cafe", "branch": "Topanga Canyon & Lassen", "brand": "Starbucks", "brand:wikidata": "Q37158", "cuisine": "coffee_shop", "name": "Starbucks", "official_name": "Starbucks Coffee", "phone": "+1 818-701-5823", "ref": "14850", "takeaway": "yes", "website": "https://www.starbucks.com/store-locator/store/14850/topanga-canyon-lassen-9935-topanga-canyon-boulevard-chatsworth-ca-913113"}}, {"type": "node", "id": 4064539864, "lat": 34.2498324, "lon": -118.5880537, "tags": {"amenity": "cafe", "cuisine": "donut"}}, {"type": "node", "id": 4064539865, "lat": 34.250146, "lon": -118.5891888, "tags": {"amenity": "cafe", "cuisine": "donut"}}, {"type": "node", "id": 4075193955, "lat": 33.9968767, "lon": -118.394214, "tags": {"addr:city": "Culver City", "addr:housenumber": "11030", "addr:postcode": "90230", "addr:state": "CA", "addr:street": "Jefferson Boulevard", "amenity": "cafe", "branch": "Pavilions Culver City 2212", "brand": "Starbucks", "brand:wikidata": "Q37158", "cuisine": "coffee_shop", "internet_access": "wlan", "name": "Starbucks", "official_name": "Starbucks Coffee", "phone": "+1 310-398-1945", "ref": "11275", "takeaway": "yes", "website": "https://www.starbucks.com/store-locator/store/11275/pavilions-culver-city-2212-11030-jefferson-blvd-culver-city-ca-902305520-us"}}, {"type": "node", "id": 4084452081, "lat": 34.1428971, "lon": -118.4054294, "tags": {"addr:city": "Studio City", "addr:housenumber": "12501", "addr:postcode": "91604", "addr:state": "CA", "addr:street": "Ventura Boulevard", "amenity": "cafe", "brand": "The Coffee Bean & Tea Leaf", "brand:wikidata": "Q1141384", "cuisine": "coffee_shop", "internet_access": "wlan", "name": "The Coffee Bean & Tea Leaf", "phone": "(818) 763-72711", "takeaway": "yes"}}, {"type": "node", "id": 4084455197, "lat": 34.1427753, "lon": -118.3937244, "tags": {"amenity": "cafe", "cuisine": "american", "internet_access": "wlan", "name": "Crave Cafe", "opening_hours": "24/7"}}, {"type": "node", "id": 4084467875, "lat": 34.1679614, "lon": -118.375889, "tags": {"amenity": "cafe", "brand": "The Coffee Bean & Tea Leaf", "brand:wikidata": "Q1141384", "cuisine": "coffee_shop", "internet_access": "wlan", "name": "The Coffee Bean & Tea Leaf", "takeaway": "yes"}}, {"type": "node", "id": 4089377353, "lat": 34.1879608, "lon": -118.5556719, "tags": {"amenity": "cafe", "name": "Rouladin", "shop": "bakery"}}, {"type": "node", "id": 4089377367, "lat": 34.1879518, "lon": -118.5549665, "tags": {"amenity": "cafe", "cuisine": "ice_cream", "ice_cream": "shave ice"}}, {"type": "node", "id": 4089377369, "lat": 34.1875628, "lon": -118.553751, "tags": {"addr:city": "Reseda", "addr:housenumber": "19313", "addr:postcode": "91335", "addr:state": "CA", "addr:street": "Victory Boulevard", "addr:unit": "1", "amenity": "cafe", "branch": "Tampa & Victory", "brand": "Starbucks", "brand:wikidata": "Q37158", "cuisine": "coffee_shop", "name": "Starbucks", "official_name": "Starbucks Coffee", "phone": "+1 818-342-7130", "ref": "12475", "takeaway": "yes", "website": "https://www.starbucks.com/store-locator/store/12475/tampa-victory-19313-victory-boulevard-1-reseda-ca-913356302-us"}}, {"type": "node", "id": 4096409095, "lat": 34.0414627, "lon": -118.2513558, "tags": {"addr:city": "Los Angeles", "addr:housenumber": "305", "addr:postcode": "90014", "addr:street": "East 8th Street", "addr:unit": "3", "amenity": "cafe", "cuisine": "coffee_shop", "name": "No Ghost Bears", "website": "http://www.coffeecolab.com"}}, {"type": "node", "id": 4096433794, "lat": 34.0423785, "lon": -118.2544884, "tags": {"addr:city": "Los Angeles", "addr:housenumber": "833", "addr:postcode": "90014", "addr:street": "South Spring Street", "amenity": "cafe", "cuisine": "coffee_shop", "name": "Verve Coffee"}}, {"type": "node", "id": 4098487070, "lat": 34.0797913, "lon": -118.26918, "tags": {"addr:city": "Los Angeles", "addr:housenumber": "2501", "addr:postcode": "90026", "addr:state": "CA", "addr:street": "Sunset Boulevard", "amenity": "cafe", "check_date": "2024-09-28", "contact:instagram": "https://www.instagram.com/biscuitandbeanla", "description": "At Biscuit & Bean, we take pride in serving freshly made, warm, and flaky biscuits, spreads, gravies and specialty sandwiches, paired with the finest coffee from Seattle\u2019s award-winning FULCRUM ROASTERS.", "email": "biscuitandbeanla@gmail.com", "image": "https://external-content.duckduckgo.com/iu/?u=https%3A%2F%2Fmedia-cdn.tripadvisor.com%2Fmedia%2Fphoto-s%2F0e%2Fd1%2F9c%2F73%2Fmorsel-and-bean.jpg&f=1&nofb=1&ipt=be0053699298e5ccc13561b82a289243c0e4bf2037f98c773f7faf3c8f2f39fe&ipo=images", "name": "Biscuit and Bean", "phone": "+1 213-263-9780"}}, {"type": "node", "id": 4100350872, "lat": 34.1610925, "lon": -118.5100253, "tags": {"addr:city": "Encino", "addr:housenumber": "17301", "addr:postcode": "91316", "addr:state": "CA", "addr:street": "Ventura Boulevard", "amenity": "cafe", "brand": "The Coffee Bean & Tea Leaf", "brand:wikidata": "Q1141384", "cuisine": "coffee_shop", "name": "The Coffee Bean & Tea Leaf", "takeaway": "yes"}}, {"type": "node", "id": 4100376309, "lat": 34.1607091, "lon": -118.5103836, "tags": {"addr:city": "Encino", "addr:housenumber": "17308", "addr:postcode": "91316", "addr:state": "CA", "addr:street": "Ventura Boulevard", "amenity": "cafe", "branch": "Ventura & Louise", "brand": "Starbucks", "brand:wikidata": "Q37158", "cuisine": "coffee_shop", "name": "Starbucks", "official_name": "Starbucks Coffee", "phone": "+1 818-986-9621", "ref": "16036", "takeaway": "yes", "website": "https://www.starbucks.com/store-locator/store/16036/ventura-louise-17308-ventura-blvd-encino-ca-913163904-us"}}, {"type": "node", "id": 4102956765, "lat": 34.1702927, "lon": -118.5404429, "tags": {"addr:city": "Tarzana", "addr:housenumber": "18700", "addr:postcode": "91356", "addr:state": "CA", "addr:street": "Ventura Boulevard", "amenity": "cafe", "brand": "Starbucks", "brand:wikidata": "Q37158", "cuisine": "coffee_shop", "name": "Starbucks", "official_name": "Starbucks Coffee", "takeaway": "yes"}}, {"type": "node", "id": 4104460145, "lat": 34.2013715, "lon": -118.5935354, "tags": {"amenity": "cafe", "cuisine": "donut", "name": "France"}}, {"type": "node", "id": 4114933896, "lat": 34.1870518, "lon": -118.5362513, "tags": {"amenity": "cafe", "cuisine": "donut", "name": "DC Donuts"}}, {"type": "node", "id": 4121132651, "lat": 34.0638044, "lon": -118.237754, "tags": {"amenity": "cafe", "name": "Gigo's Cafe & Deli"}}, {"type": "node", "id": 4121132654, "lat": 34.0632321, "lon": -118.2390993, "tags": {"amenity": "cafe", "name": "HillStreet"}}, {"type": "node", "id": 4125794783, "lat": 34.1183593, "lon": -118.293793, "tags": {"addr:housenumber": "2650", "addr:street": "Vermont Canyon Road", "amenity": "cafe", "cuisine": "bar_and_grill;coffee_shop;market", "indoor_seating": "yes", "internet_access": "yes", "internet_access:fee": "no", "name": "Franklin's Cafe & Market - Griffith Park", "outdoor_seating": "yes", "phone": "+13235450444", "website": "http://franklinsatgriffithpark.com/"}}, {"type": "node", "id": 4129160728, "lat": 34.1719185, "lon": -118.3968179, "tags": {"addr:city": "Valley Village", "addr:housenumber": "12106", "addr:postcode": "91607", "addr:state": "CA", "addr:street": "West Burbank Boulevard", "amenity": "cafe", "branch": "Laurel Canyon & Burbank", "brand": "Starbucks", "brand:wikidata": "Q37158", "cuisine": "coffee_shop", "drive_through": "yes", "internet_access": "wlan", "name": "Starbucks", "official_name": "Starbucks Coffee", "phone": "+1 818-299-4968", "ref": "1008743", "takeaway": "yes", "website": "https://www.starbucks.com/store-locator/store/1008743/laurel-canyon-burbank-12106-west-burbank-blvd-valley-village-ca-91607170"}}, {"type": "node", "id": 4129302505, "lat": 34.0858129, "lon": -118.291495, "tags": {"addr:city": "Los Angeles", "addr:housenumber": "800", "addr:postcode": "90029-3517", "addr:state": "CA", "addr:street": "North Vermont Avenue", "amenity": "cafe", "name": "DC Library Cafe", "start_date": "2011-08-03"}}, {"type": "node", "id": 4140126370, "lat": 34.1265428, "lon": -118.263506, "tags": {"addr:city": "Los Angeles", "addr:housenumber": "2919", "addr:postcode": "90039", "addr:state": "CA", "addr:street": "Los Feliz Boulevard", "addr:unit": "6", "amenity": "cafe", "branch": "Los Feliz & Seneca", "brand": "Starbucks", "brand:wikidata": "Q37158", "cuisine": "coffee_shop", "indoor_seating": "yes", "name": "Starbucks", "official_name": "Starbucks Coffee", "opening_hours": "Mo-Fr 04:30-20:30; Sa,Su 05:00-20:30", "outdoor_seating": "yes", "phone": "+1 323-665-1347", "ref": "15047", "takeaway": "yes", "website": "https://www.starbucks.com/store-locator/store/15047/los-feliz-seneca-2919-los-feliz-blvd-6-los-angeles-ca-900391544-us"}}, {"type": "node", "id": 4145027501, "lat": 33.9578521, "lon": -118.4498162}, {"type": "node", "id": 4145027502, "lat": 33.9578624, "lon": -118.4498438}, {"type": "node", "id": 4145027503, "lat": 33.9578648, "lon": -118.4498179}, {"type": "node", "id": 4145027504, "lat": 33.9578667, "lon": -118.4496573}, {"type": "node", "id": 4145027505, "lat": 33.9579088, "lon": -118.4495704}, {"type": "node", "id": 4145027506, "lat": 33.9579358, "lon": -118.4495893}, {"type": "node", "id": 4145027507, "lat": 33.957983, "lon": -118.449492}, {"type": "node", "id": 4145027508, "lat": 33.9579876, "lon": -118.4499312}, {"type": "node", "id": 4145027509, "lat": 33.957996, "lon": -118.4495951}, {"type": "node", "id": 4145027510, "lat": 33.9580294, "lon": -118.4496358}, {"type": "node", "id": 4145027511, "lat": 33.9580306, "lon": -118.4495252}, {"type": "node", "id": 4145027512, "lat": 33.9580356, "lon": -118.4496229}, {"type": "node", "id": 4145027513, "lat": 33.9580372, "lon": -118.4498289}, {"type": "node", "id": 4145027514, "lat": 33.9581022, "lon": -118.4498743}, {"type": "node", "id": 4145027517, "lat": 33.9581696, "lon": -118.4497353}, {"type": "node", "id": 4160530656, "lat": 34.1521001, "lon": -118.3665593}, {"type": "node", "id": 4160530657, "lat": 34.1521309, "lon": -118.3665958}, {"type": "node", "id": 4160530658, "lat": 34.1521326, "lon": -118.3666496}, {"type": "node", "id": 4160530659, "lat": 34.1521029, "lon": -118.3666888}, {"type": "node", "id": 4160530660, "lat": 34.1520589, "lon": -118.3666914}, {"type": "node", "id": 4160746189, "lat": 34.058313, "lon": -118.444579, "tags": {"addr:housenumber": "10920", "addr:street": "Wilshire Boulevard", "addr:unit": "1000", "amenity": "cafe", "cuisine": "burger;italian;sandwich;grill;mexican;breakfast;american;deli;pasta;bagel", "diet:vegetarian": "yes", "name": "Trimana", "opening_hours": "Mo-Fr 09:00-15:00", "phone": "+1 310-208-2946", "website": "https://www.trimana.com/"}}, {"type": "node", "id": 4160888490, "lat": 34.07356, "lon": -118.4392304, "tags": {"amenity": "cafe", "name": "Lu Valle Eateries"}}, {"type": "node", "id": 4162647227, "lat": 34.0185773, "lon": -118.281862, "tags": {"addr:city": "Los Angeles", "addr:housenumber": "3584", "addr:postcode": "90007", "addr:state": "CA", "addr:street": "South Figueroa Street", "addr:unit": "1B", "amenity": "cafe", "branch": "Figueroa & Exposition", "brand": "Starbucks", "brand:wikidata": "Q37158", "cuisine": "coffee_shop", "internet_access": "wlan", "name": "Starbucks", "official_name": "Starbucks Coffee", "opening_hours": "Mo-Su 09:00-23:00", "phone": "+1 213-749-9302", "ref": "91220", "smoking": "no", "takeaway": "yes", "website": "https://www.starbucks.com/store-locator/store/91220/figueroa-exposition-3584-s-figueroa-st-1-b-los-angeles-ca-900074313-us"}}, {"type": "node", "id": 4166608938, "lat": 34.0829003, "lon": -118.2735534, "tags": {"addr:city": "Los Angeles", "addr:housenumber": "2900", "addr:postcode": "90026", "addr:state": "CA", "addr:street": "Sunset Boulevard", "amenity": "cafe", "check_date": "2024-09-28", "cuisine": "coffee_shop;cuban", "name": "Cafe Tropical", "opening_hours": "Mo-Fr 06:00-22:00; Sa-Su 07:00-22:00", "phone": "+1-323-661-8391", "website": "https://cafetrop.com/"}}, {"type": "node", "id": 4166608942, "lat": 34.0826175, "lon": -118.273193, "tags": {"addr:city": "Los Angeles", "addr:housenumber": "2852", "addr:postcode": "90026", "addr:state": "CA", "addr:street": "Sunset Boulevard", "amenity": "cafe", "check_date": "2024-09-28", "cuisine": "sandwich;breakfast;wings;salad", "description": "Bodega Park, a Coffee and Sandwich concept. Our menu is an ode to the bodega sandwich and coffee - uniting our LA and Korean roots with our experience in New York, our love for coffee, and of course, the craft of making delicious sandwiches.", "email": "https://www.instagram.com/bodegapark/", "image": "https://external-content.duckduckgo.com/iu/?u=https%3A%2F%2Ftse2.mm.bing.net%2Fth%3Fid%3DOIP.lnBpy-Qn0j_gIlRIils3cgHaE7%26pid%3DApi&f=1&ipt=b9a511a67977dfcc8358b1908798df7337f2904573f54461c89c97a9ebd9e57c&ipo=images", "name": "Bodega Park", "opening_hours": "Tu-Su 08:00-15:00", "website": "https://www.bodegapark.la/", "website:menu": "https://www.bodegapark.la/s/order"}}, {"type": "node", "id": 4182142889, "lat": 34.0032672, "lon": -118.433698, "tags": {"addr:city": "Los Angeles", "addr:housenumber": "12404", "addr:postcode": "90065", "addr:state": "CA", "addr:street": "Venice Boulevard", "addr:unit": "A", "amenity": "cafe", "branch": "Venice & Centinela", "brand": "Starbucks", "brand:wikidata": "Q37158", "cuisine": "coffee_shop", "internet_access": "wlan", "name": "Starbucks", "official_name": "Starbucks Coffee", "opening_hours": "Mo-Su 05:00-20:00", "phone": "+1 310-390-2354", "takeaway": "yes", "website": "https://www.starbucks.com/store-locator/store/1006874/venice-centinela-12404-w-venice-blvd-suite-a-los-angeles-ca-9006638"}}, {"type": "node", "id": 4192890133, "lat": 34.1017494, "lon": -118.331199, "tags": {"amenity": "cafe", "name": "After Coffee"}}, {"type": "node", "id": 4200928960, "lat": 34.0803458, "lon": -118.2842114}, {"type": "node", "id": 4200928961, "lat": 34.0803462, "lon": -118.2842687}, {"type": "node", "id": 4200928963, "lat": 34.0803463, "lon": -118.2843004}, {"type": "node", "id": 4200928964, "lat": 34.0803467, "lon": -118.2843471}, {"type": "node", "id": 4200928972, "lat": 34.0803641, "lon": -118.2842685}, {"type": "node", "id": 4200928973, "lat": 34.0803643, "lon": -118.2843002}, {"type": "node", "id": 4200928974, "lat": 34.0803651, "lon": -118.2842082}, {"type": "node", "id": 4200928975, "lat": 34.0803651, "lon": -118.2842112}, {"type": "node", "id": 4200928979, "lat": 34.0803911, "lon": -118.2842022}, {"type": "node", "id": 4200928980, "lat": 34.0803911, "lon": -118.2842079}, {"type": "node", "id": 4200928981, "lat": 34.0803927, "lon": -118.2843194}, {"type": "node", "id": 4200928982, "lat": 34.0803929, "lon": -118.2843476}, {"type": "node", "id": 4200928984, "lat": 34.0804134, "lon": -118.284202}, {"type": "node", "id": 4200928985, "lat": 34.0804134, "lon": -118.284208}, {"type": "node", "id": 4200928986, "lat": 34.0804143, "lon": -118.2843061}, {"type": "node", "id": 4200928987, "lat": 34.0804143, "lon": -118.2843191}, {"type": "node", "id": 4200928988, "lat": 34.080431, "lon": -118.2843059}, {"type": "node", "id": 4200928989, "lat": 34.0804314, "lon": -118.284348}, {"type": "node", "id": 4200928994, "lat": 34.0804612, "lon": -118.2842075}, {"type": "node", "id": 4200929002, "lat": 34.0805052, "lon": -118.2843486}, {"type": "node", "id": 4200929003, "lat": 34.0805065, "lon": -118.2843459}, {"type": "node", "id": 4200929004, "lat": 34.0805119, "lon": -118.2843342}, {"type": "node", "id": 4206230670, "lat": 34.0687198, "lon": -118.293061}, {"type": "node", "id": 4206230798, "lat": 34.0688056, "lon": -118.2930615}, {"type": "node", "id": 4209682068, "lat": 34.0408704, "lon": -118.2509484, "tags": {"addr:city": "Los Angeles", "addr:housenumber": "411", "addr:postcode": "90014", "addr:state": "CA", "addr:street": "East 8th Street", "amenity": "cafe", "cuisine": "donut", "name": "Coffee House Donuts"}}, {"type": "node", "id": 4211961513, "lat": 33.9912809, "lon": -118.4465677}, {"type": "node", "id": 4211961518, "lat": 33.9912941, "lon": -118.4465771}, {"type": "node", "id": 4211961521, "lat": 33.9913008, "lon": -118.4465273}, {"type": "node", "id": 4211961527, "lat": 33.9913148, "lon": -118.4465373}, {"type": "node", "id": 4211961542, "lat": 33.9913454, "lon": -118.4464389}, {"type": "node", "id": 4211961546, "lat": 33.9913558, "lon": -118.4464178}, {"type": "node", "id": 4211961554, "lat": 33.9913709, "lon": -118.4464285}, {"type": "node", "id": 4211961560, "lat": 33.9913792, "lon": -118.4464119}, {"type": "node", "id": 4211961567, "lat": 33.9913967, "lon": -118.4464467}, {"type": "node", "id": 4211961570, "lat": 33.9914049, "lon": -118.4464302}, {"type": "node", "id": 4211961589, "lat": 33.9914466, "lon": -118.4466656}, {"type": "node", "id": 4211961595, "lat": 33.9914586, "lon": -118.4466742}, {"type": "node", "id": 4213575695, "lat": 34.0401084, "lon": -118.423042, "tags": {"addr:housenumber": "2530", "amenity": "cafe", "cuisine": "balkan", "name": "Aroma Cafe"}}, {"type": "node", "id": 4214403661, "lat": 34.1014309, "lon": -118.3127678}, {"type": "node", "id": 4214403679, "lat": 34.1015837, "lon": -118.3127233}, {"type": "node", "id": 4214404018, "lat": 34.1015968, "lon": -118.3127233}, {"type": "node", "id": 4218571917, "lat": 34.1139272, "lon": -118.3076516}, {"type": "node", "id": 4218571918, "lat": 34.1139312, "lon": -118.3077178}, {"type": "node", "id": 4218571922, "lat": 34.113982, "lon": -118.3076467}, {"type": "node", "id": 4218571923, "lat": 34.1139837, "lon": -118.3076754}, {"type": "node", "id": 4218571924, "lat": 34.113987, "lon": -118.3077044}, {"type": "node", "id": 4218571925, "lat": 34.1139875, "lon": -118.3077129}, {"type": "node", "id": 4218571926, "lat": 34.1139936, "lon": -118.3076745}, {"type": "node", "id": 4218571927, "lat": 34.1139954, "lon": -118.3077036}, {"type": "node", "id": 4226703189, "lat": 34.0090826, "lon": -118.2601032, "tags": {"addr:street": "East 41st Street", "amenity": "cafe"}}, {"type": "node", "id": 4231137013, "lat": 34.0718226, "lon": -118.3608013, "tags": {"addr:city": "Farmers Market", "addr:housenumber": "6333", "addr:postcode": "90036", "addr:state": "CA", "addr:street": "West 3rd Street", "amenity": "cafe", "branch": "3rd & Fairfax (Farmers Market)", "brand": "Starbucks", "brand:wikidata": "Q37158", "cuisine": "coffee_shop", "name": "Starbucks", "official_name": "Starbucks Coffee", "phone": "+1 323-965-9594", "takeaway": "yes", "website": "https://www.starbucks.com/store-locator/store/8832/3rd-fairfax-farmers-market-6333-w-3rd-street-los-angeles-ca-900363109-us"}}, {"type": "node", "id": 4243330946, "lat": 34.0671845, "lon": -118.4446638, "tags": {"amenity": "cafe", "cuisine": "coffee_shop", "name": "Cafe Synapse", "outdoor_seating": "yes", "source": "local knowledge"}}, {"type": "node", "id": 4244533282, "lat": 34.0254377, "lon": -118.4312583}, {"type": "node", "id": 4244533283, "lat": 34.0254457, "lon": -118.4311816}, {"type": "node", "id": 4244533284, "lat": 34.0254545, "lon": -118.4311921}, {"type": "node", "id": 4244533285, "lat": 34.0254561, "lon": -118.4311888}, {"type": "node", "id": 4244533286, "lat": 34.0254598, "lon": -118.4311526}, {"type": "node", "id": 4244533287, "lat": 34.0254659, "lon": -118.4312001}, {"type": "node", "id": 4244533290, "lat": 34.0254701, "lon": -118.4311599}, {"type": "node", "id": 4244533291, "lat": 34.0254794, "lon": -118.4311407}, {"type": "node", "id": 4244533292, "lat": 34.0254917, "lon": -118.4311492}, {"type": "node", "id": 4244533293, "lat": 34.0254947, "lon": -118.4311328}, {"type": "node", "id": 4244533295, "lat": 34.0254984, "lon": -118.4311354}, {"type": "node", "id": 4244533296, "lat": 34.025505, "lon": -118.4311117}, {"type": "node", "id": 4244533297, "lat": 34.0255086, "lon": -118.4311142}, {"type": "node", "id": 4244533298, "lat": 34.0255122, "lon": -118.431107}, {"type": "node", "id": 4244533300, "lat": 34.0255194, "lon": -118.431112}, {"type": "node", "id": 4244533301, "lat": 34.0255206, "lon": -118.4311095}, {"type": "node", "id": 4244533302, "lat": 34.0255356, "lon": -118.4311234}, {"type": "node", "id": 4244533303, "lat": 34.0255369, "lon": -118.4311209}, {"type": "node", "id": 4244533308, "lat": 34.0255617, "lon": -118.4311417}, {"type": "node", "id": 4244533309, "lat": 34.025563, "lon": -118.4311389}, {"type": "node", "id": 4244533310, "lat": 34.0255639, "lon": -118.4313467}, {"type": "node", "id": 4244533313, "lat": 34.0255902, "lon": -118.4312926}, {"type": "node", "id": 4244533314, "lat": 34.0255947, "lon": -118.4312957}, {"type": "node", "id": 4244533319, "lat": 34.0256329, "lon": -118.4311915}, {"type": "node", "id": 4244533320, "lat": 34.0256338, "lon": -118.4312028}, {"type": "node", "id": 4244533321, "lat": 34.0256343, "lon": -118.4311888}, {"type": "node", "id": 4244533322, "lat": 34.0256376, "lon": -118.4311948}, {"type": "node", "id": 4244533323, "lat": 34.0256383, "lon": -118.431206}, {"type": "node", "id": 4244564905, "lat": 34.047514, "lon": -118.4452872}, {"type": "node", "id": 4244564906, "lat": 34.0475237, "lon": -118.4453173}, {"type": "node", "id": 4244564907, "lat": 34.0475301, "lon": -118.4452233}, {"type": "node", "id": 4244564908, "lat": 34.0475323, "lon": -118.4453014}, {"type": "node", "id": 4244564909, "lat": 34.0475373, "lon": -118.4452298}, {"type": "node", "id": 4244564910, "lat": 34.0475509, "lon": -118.4452037}, {"type": "node", "id": 4244564912, "lat": 34.0475696, "lon": -118.4453569}, {"type": "node", "id": 4244564913, "lat": 34.0475843, "lon": -118.4451679}, {"type": "node", "id": 4244564917, "lat": 34.0476482, "lon": -118.4452251}, {"type": "node", "id": 4244752042, "lat": 34.1566501, "lon": -118.605454, "tags": {"amenity": "cafe", "cuisine": "donut", "name": "Blinkies Donut"}}, {"type": "node", "id": 4247507069, "lat": 34.0540248, "lon": -118.440375}, {"type": "node", "id": 4247507076, "lat": 34.0540961, "lon": -118.4402573}, {"type": "node", "id": 4247507080, "lat": 34.0541161, "lon": -118.440275}, {"type": "node", "id": 4247507081, "lat": 34.0541198, "lon": -118.4404587}, {"type": "node", "id": 4247507082, "lat": 34.054127, "lon": -118.4402569}, {"type": "node", "id": 4247507088, "lat": 34.0541651, "lon": -118.4403181}, {"type": "node", "id": 4247507089, "lat": 34.054176, "lon": -118.4403001}, {"type": "node", "id": 4247507093, "lat": 34.0541911, "lon": -118.4403409}, {"type": "node", "id": 4248538529, "lat": 34.0402566, "lon": -118.4633694}, {"type": "node", "id": 4248538534, "lat": 34.0402648, "lon": -118.4633552}, {"type": "node", "id": 4248538540, "lat": 34.0402746, "lon": -118.4633318}, {"type": "node", "id": 4248538543, "lat": 34.0402817, "lon": -118.4633115}, {"type": "node", "id": 4248538545, "lat": 34.0402862, "lon": -118.4632943}, {"type": "node", "id": 4248538546, "lat": 34.0402876, "lon": -118.4632779}, {"type": "node", "id": 4248538560, "lat": 34.040311, "lon": -118.463299}, {"type": "node", "id": 4248538561, "lat": 34.0403116, "lon": -118.4632849}, {"type": "node", "id": 4248538585, "lat": 34.0403621, "lon": -118.4634364}, {"type": "node", "id": 4248538594, "lat": 34.0403778, "lon": -118.4633856}, {"type": "node", "id": 4248538598, "lat": 34.0403831, "lon": -118.4633889}, {"type": "node", "id": 4248538602, "lat": 34.0403873, "lon": -118.4633324}, {"type": "node", "id": 4253188252, "lat": 34.0560893, "lon": -118.247013}, {"type": "node", "id": 4253188258, "lat": 34.0561068, "lon": -118.2470459}, {"type": "node", "id": 4253188259, "lat": 34.056111, "lon": -118.2470393}, {"type": "node", "id": 4253188267, "lat": 34.056153, "lon": -118.2471151}, {"type": "node", "id": 4253188270, "lat": 34.0561661, "lon": -118.2469368}, {"type": "node", "id": 4253188274, "lat": 34.0561718, "lon": -118.246945}, {"type": "node", "id": 4253188278, "lat": 34.0561867, "lon": -118.2469289}, {"type": "node", "id": 4253188287, "lat": 34.0562326, "lon": -118.247001}, {"type": "node", "id": 4256819412, "lat": 34.05263, "lon": -118.2648775}, {"type": "node", "id": 4256819414, "lat": 34.0526303, "lon": -118.2648814}, {"type": "node", "id": 4256819415, "lat": 34.052632, "lon": -118.2648744}, {"type": "node", "id": 4256819416, "lat": 34.0526326, "lon": -118.2648838}, {"type": "node", "id": 4256819417, "lat": 34.0526349, "lon": -118.2648737}, {"type": "node", "id": 4256819418, "lat": 34.0526363, "lon": -118.2648844}, {"type": "node", "id": 4256819419, "lat": 34.0526389, "lon": -118.2648755}, {"type": "node", "id": 4256819420, "lat": 34.0526407, "lon": -118.2648516}, {"type": "node", "id": 4256819422, "lat": 34.0526486, "lon": -118.2648693}, {"type": "node", "id": 4256819425, "lat": 34.0526595, "lon": -118.264945}, {"type": "node", "id": 4256819426, "lat": 34.0526601, "lon": -118.2649415}, {"type": "node", "id": 4256819427, "lat": 34.0526606, "lon": -118.2649484}, {"type": "node", "id": 4256819428, "lat": 34.0526626, "lon": -118.2649395}, {"type": "node", "id": 4256819429, "lat": 34.0526638, "lon": -118.2649495}, {"type": "node", "id": 4256819431, "lat": 34.0526676, "lon": -118.2649482}, {"type": "node", "id": 4256819432, "lat": 34.0526709, "lon": -118.2649412}, {"type": "node", "id": 4256819437, "lat": 34.0526932, "lon": -118.2649263}, {"type": "node", "id": 4256819438, "lat": 34.0526959, "lon": -118.264932}, {"type": "node", "id": 4256819445, "lat": 34.052725, "lon": -118.2649055}, {"type": "node", "id": 4256819446, "lat": 34.0527257, "lon": -118.2647895}, {"type": "node", "id": 4256819448, "lat": 34.0527275, "lon": -118.2649109}, {"type": "node", "id": 4256819449, "lat": 34.0527281, "lon": -118.2647954}, {"type": "node", "id": 4256819457, "lat": 34.0527515, "lon": -118.2648877}, {"type": "node", "id": 4256819461, "lat": 34.0527554, "lon": -118.2648912}, {"type": "node", "id": 4256819462, "lat": 34.0527591, "lon": -118.2648896}, {"type": "node", "id": 4256819463, "lat": 34.0527602, "lon": -118.2648831}, {"type": "node", "id": 4256819464, "lat": 34.0527609, "lon": -118.2648855}, {"type": "node", "id": 4256819467, "lat": 34.0527829, "lon": -118.2648689}, {"type": "node", "id": 4256819468, "lat": 34.0527856, "lon": -118.2648751}, {"type": "node", "id": 4256819472, "lat": 34.052802, "lon": -118.2647447}, {"type": "node", "id": 4256819475, "lat": 34.052811, "lon": -118.2648497}, {"type": "node", "id": 4256819477, "lat": 34.0528142, "lon": -118.2648568}, {"type": "node", "id": 4256819590, "lat": 34.0528343, "lon": -118.2648343}, {"type": "node", "id": 4256819591, "lat": 34.0528376, "lon": -118.2648255}, {"type": "node", "id": 4256819592, "lat": 34.0528377, "lon": -118.2648362}, {"type": "node", "id": 4256819593, "lat": 34.0528413, "lon": -118.2648261}, {"type": "node", "id": 4256819594, "lat": 34.0528418, "lon": -118.2648352}, {"type": "node", "id": 4256819598, "lat": 34.0528435, "lon": -118.2648301}, {"type": "node", "id": 4257017379, "lat": 34.1048181, "lon": -118.2434628}, {"type": "node", "id": 4257017380, "lat": 34.1048273, "lon": -118.243472}, {"type": "node", "id": 4257017381, "lat": 34.1048298, "lon": -118.2434684}, {"type": "node", "id": 4257017383, "lat": 34.1048328, "lon": -118.243446}, {"type": "node", "id": 4257017384, "lat": 34.1048358, "lon": -118.2434494}, {"type": "node", "id": 4257017386, "lat": 34.1048383, "lon": -118.2434775}, {"type": "node", "id": 4257017387, "lat": 34.1048576, "lon": -118.2434955}, {"type": "node", "id": 4257017389, "lat": 34.1048685, "lon": -118.2435052}, {"type": "node", "id": 4257017390, "lat": 34.104882, "lon": -118.2433967}, {"type": "node", "id": 4257017392, "lat": 34.104896, "lon": -118.2434698}, {"type": "node", "id": 4257017393, "lat": 34.1049384, "lon": -118.243508}, {"type": "node", "id": 4257017394, "lat": 34.1049659, "lon": -118.2434509}, {"type": "node", "id": 4257017396, "lat": 34.1049863, "lon": -118.2435445}, {"type": "node", "id": 4257017399, "lat": 34.1050199, "lon": -118.2435996}, {"type": "node", "id": 4257017400, "lat": 34.1050313, "lon": -118.2435766}, {"type": "node", "id": 4257017402, "lat": 34.1051375, "lon": -118.2436834}, {"type": "node", "id": 4257017403, "lat": 34.1051404, "lon": -118.2437111}, {"type": "node", "id": 4257017404, "lat": 34.1051413, "lon": -118.2436758}, {"type": "node", "id": 4257017405, "lat": 34.1051468, "lon": -118.2436793}, {"type": "node", "id": 4257017406, "lat": 34.1051607, "lon": -118.2437336}, {"type": "node", "id": 4257017407, "lat": 34.1052396, "lon": -118.2436496}, {"type": "node", "id": 4259171927, "lat": 34.0865739, "lon": -118.2909814, "tags": {"addr:city": "Los Angeles", "addr:country": "US", "addr:housenumber": "4350", "addr:postcode": "90029", "addr:state": "CA", "addr:street": "Normal Avenue", "amenity": "cafe", "name": "Red Dragon", "source": "http://egis3.lacounty.gov/dataportal/2012/06/19/la-county-address-points/"}}, {"type": "node", "id": 4259744399, "lat": 33.988741, "lon": -118.4747766, "tags": {"addr:housenumber": "9", "addr:street": "Westminster Avenue", "amenity": "cafe", "name": "Zelda's Corner"}}, {"type": "node", "id": 4259746796, "lat": 33.9921578, "lon": -118.4781526, "tags": {"addr:housenumber": "619", "addr:street": "Ocean Front Walk", "amenity": "cafe", "name": "N'ice cream"}}, {"type": "node", "id": 4259747294, "lat": 34.0978374, "lon": -118.36208, "tags": {"addr:city": "Los Angeles", "addr:housenumber": "7916", "addr:postcode": "90046", "addr:state": "CA", "addr:street": "West Sunset Boulevard", "amenity": "cafe", "name": "The Griddle"}}, {"type": "node", "id": 4259758781, "lat": 34.0797281, "lon": -118.2598037}, {"type": "node", "id": 4259758782, "lat": 34.0797381, "lon": -118.2598416}, {"type": "node", "id": 4259758783, "lat": 34.0797433, "lon": -118.2598383}, {"type": "node", "id": 4259758784, "lat": 34.0797469, "lon": -118.2598617}, {"type": "node", "id": 4259758785, "lat": 34.0797481, "lon": -118.2598643}, {"type": "node", "id": 4259758786, "lat": 34.0797512, "lon": -118.259859}, {"type": "node", "id": 4259758787, "lat": 34.0797524, "lon": -118.2598616}, {"type": "node", "id": 4259758788, "lat": 34.0797588, "lon": -118.2598887}, {"type": "node", "id": 4259759689, "lat": 34.0797602, "lon": -118.2598921}, {"type": "node", "id": 4259759690, "lat": 34.0797626, "lon": -118.2598863}, {"type": "node", "id": 4259759691, "lat": 34.079764, "lon": -118.2598896}, {"type": "node", "id": 4259759692, "lat": 34.0797704, "lon": -118.2599155}, {"type": "node", "id": 4259759693, "lat": 34.0797714, "lon": -118.2599179}, {"type": "node", "id": 4259759694, "lat": 34.0797746, "lon": -118.2599129}, {"type": "node", "id": 4259759695, "lat": 34.0797756, "lon": -118.2599153}, {"type": "node", "id": 4259759696, "lat": 34.0797817, "lon": -118.2599415}, {"type": "node", "id": 4259759697, "lat": 34.0797869, "lon": -118.2599383}, {"type": "node", "id": 4259759698, "lat": 34.0797887, "lon": -118.2599425}, {"type": "node", "id": 4259759699, "lat": 34.0797939, "lon": -118.2599423}, {"type": "node", "id": 4259759700, "lat": 34.0797941, "lon": -118.2599499}, {"type": "node", "id": 4259759701, "lat": 34.0798116, "lon": -118.2599433}, {"type": "node", "id": 4259759702, "lat": 34.0798118, "lon": -118.2599491}, {"type": "node", "id": 4259759703, "lat": 34.0798152, "lon": -118.2599432}, {"type": "node", "id": 4259759704, "lat": 34.0798393, "lon": -118.2597336}, {"type": "node", "id": 4259759705, "lat": 34.0798398, "lon": -118.2599421}, {"type": "node", "id": 4259759706, "lat": 34.07984, "lon": -118.2599482}, {"type": "node", "id": 4259759707, "lat": 34.0798565, "lon": -118.2599396}, {"type": "node", "id": 4259759708, "lat": 34.0798568, "lon": -118.2599475}, {"type": "node", "id": 4259759710, "lat": 34.0798913, "lon": -118.2599382}, {"type": "node", "id": 4259759711, "lat": 34.079893, "lon": -118.2598566}, {"type": "node", "id": 4259759712, "lat": 34.0799, "lon": -118.2598521}, {"type": "node", "id": 4259759713, "lat": 34.0799008, "lon": -118.259854}, {"type": "node", "id": 4259759714, "lat": 34.0799114, "lon": -118.2598471}, {"type": "node", "id": 4259759716, "lat": 34.079917, "lon": -118.2598907}, {"type": "node", "id": 4259759719, "lat": 34.0799277, "lon": -118.2599146}, {"type": "node", "id": 4259759720, "lat": 34.0799278, "lon": -118.2598837}, {"type": "node", "id": 4259815348, "lat": 34.0873139, "lon": -118.2602412}, {"type": "node", "id": 4259815368, "lat": 34.0873103, "lon": -118.2598241}, {"type": "node", "id": 4259819936, "lat": 34.1198216, "lon": -118.3214012}, {"type": "node", "id": 4259819937, "lat": 34.1198227, "lon": -118.3214553}, {"type": "node", "id": 4259819942, "lat": 34.119829, "lon": -118.321374}, {"type": "node", "id": 4259819943, "lat": 34.1198295, "lon": -118.3214009}, {"type": "node", "id": 4259819945, "lat": 34.1198306, "lon": -118.3213739}, {"type": "node", "id": 4259819947, "lat": 34.1198336, "lon": -118.3214547}, {"type": "node", "id": 4259819948, "lat": 34.1198346, "lon": -118.3214688}, {"type": "node", "id": 4259819949, "lat": 34.1198327, "lon": -118.3211377}, {"type": "node", "id": 4259819954, "lat": 34.119834, "lon": -118.3212706}, {"type": "node", "id": 4259819958, "lat": 34.1198422, "lon": -118.3213635}, {"type": "node", "id": 4259819959, "lat": 34.1198424, "lon": -118.3213736}, {"type": "node", "id": 4259819963, "lat": 34.1198528, "lon": -118.3211373}, {"type": "node", "id": 4259819964, "lat": 34.1198531, "lon": -118.3211789}, {"type": "node", "id": 4259819971, "lat": 34.1198796, "lon": -118.3212685}, {"type": "node", "id": 4259819973, "lat": 34.1198816, "lon": -118.3213623}, {"type": "node", "id": 4259819974, "lat": 34.119884, "lon": -118.3211798}, {"type": "node", "id": 4259819975, "lat": 34.1198843, "lon": -118.3211953}, {"type": "node", "id": 4259820091, "lat": 34.1199273, "lon": -118.3211958}, {"type": "node", "id": 4259820109, "lat": 34.1199482, "lon": -118.3212071}, {"type": "node", "id": 4259820139, "lat": 34.1199928, "lon": -118.3212457}, {"type": "node", "id": 4259820169, "lat": 34.1200235, "lon": -118.3212834}, {"type": "node", "id": 4259820190, "lat": 34.1200393, "lon": -118.321356}, {"type": "node", "id": 4259820191, "lat": 34.1200394, "lon": -118.3213094}, {"type": "node", "id": 4259820214, "lat": 34.1200576, "lon": -118.32147}, {"type": "node", "id": 4259820216, "lat": 34.1200581, "lon": -118.3213565}, {"type": "node", "id": 4265106132, "lat": 34.064254, "lon": -118.3089734}, {"type": "node", "id": 4265106133, "lat": 34.064255, "lon": -118.3088575}, {"type": "node", "id": 4265106188, "lat": 34.0643299, "lon": -118.3088572}, {"type": "node", "id": 4265106189, "lat": 34.06433, "lon": -118.3089741}, {"type": "node", "id": 4265106316, "lat": 34.0644705, "lon": -118.3086601}, {"type": "node", "id": 4265106321, "lat": 34.0644755, "lon": -118.3086342}, {"type": "node", "id": 4265106322, "lat": 34.0644758, "lon": -118.30866}, {"type": "node", "id": 4265106325, "lat": 34.0644843, "lon": -118.3086195}, {"type": "node", "id": 4265106326, "lat": 34.0644845, "lon": -118.308634}, {"type": "node", "id": 4265106330, "lat": 34.0644982, "lon": -118.3086192}, {"type": "node", "id": 4265106331, "lat": 34.0644998, "lon": -118.3085069}, {"type": "node", "id": 4265106350, "lat": 34.0645279, "lon": -118.3084846}, {"type": "node", "id": 4265106351, "lat": 34.0645279, "lon": -118.3085064}, {"type": "node", "id": 4265106410, "lat": 34.0645804, "lon": -118.3084848}, {"type": "node", "id": 4265106447, "lat": 34.0646265, "lon": -118.3089661}, {"type": "node", "id": 4265106448, "lat": 34.0646266, "lon": -118.3089518}, {"type": "node", "id": 4265106486, "lat": 34.0647278, "lon": -118.3089667}, {"type": "node", "id": 4265106487, "lat": 34.0647279, "lon": -118.3089758}, {"type": "node", "id": 4265106596, "lat": 34.0648926, "lon": -118.3089755}, {"type": "node", "id": 4268298625, "lat": 34.0451267, "lon": -118.2365038}, {"type": "node", "id": 4268298626, "lat": 34.0451313, "lon": -118.2354604}, {"type": "node", "id": 4268298630, "lat": 34.0451598, "lon": -118.2355174}, {"type": "node", "id": 4268298632, "lat": 34.0451632, "lon": -118.2355145}, {"type": "node", "id": 4268298635, "lat": 34.0451775, "lon": -118.2355473}, {"type": "node", "id": 4268298639, "lat": 34.0451911, "lon": -118.2366109}, {"type": "node", "id": 4268298651, "lat": 34.0452674, "lon": -118.235336}, {"type": "node", "id": 4268298668, "lat": 34.045399, "lon": -118.2352161}, {"type": "node", "id": 4268298670, "lat": 34.045405, "lon": -118.2362636}, {"type": "node", "id": 4268298674, "lat": 34.0454272, "lon": -118.2353342}, {"type": "node", "id": 4268298675, "lat": 34.0454286, "lon": -118.2353365}, {"type": "node", "id": 4268298683, "lat": 34.0454568, "lon": -118.2353121}, {"type": "node", "id": 4268298694, "lat": 34.0454879, "lon": -118.2363546}, {"type": "node", "id": 4275261365, "lat": 34.117364, "lon": -118.2335018}, {"type": "node", "id": 4275261401, "lat": 34.1173832, "lon": -118.233374}, {"type": "node", "id": 4275261440, "lat": 34.117417, "lon": -118.2333962}, {"type": "node", "id": 4275261708, "lat": 34.1174566, "lon": -118.2332713}, {"type": "node", "id": 4275261719, "lat": 34.1174643, "lon": -118.2332761}, {"type": "node", "id": 4275261806, "lat": 34.117521, "lon": -118.233198}, {"type": "node", "id": 4275261821, "lat": 34.1175336, "lon": -118.2336349}, {"type": "node", "id": 4275262060, "lat": 34.1176908, "lon": -118.2333171}, {"type": "node", "id": 4276093258, "lat": 34.0401239, "lon": -118.3304495}, {"type": "node", "id": 4276093279, "lat": 34.0401555, "lon": -118.3305342}, {"type": "node", "id": 4276093413, "lat": 34.0402337, "lon": -118.3303878}, {"type": "node", "id": 4276093414, "lat": 34.0402346, "lon": -118.3303901}, {"type": "node", "id": 4276093429, "lat": 34.0402599, "lon": -118.3303738}, {"type": "node", "id": 4276093434, "lat": 34.0402615, "lon": -118.330378}, {"type": "node", "id": 4276093444, "lat": 34.0402697, "lon": -118.3304688}, {"type": "node", "id": 4276093445, "lat": 34.0402709, "lon": -118.3304722}, {"type": "node", "id": 4276093455, "lat": 34.0402864, "lon": -118.3303646}, {"type": "node", "id": 4276093477, "lat": 34.0403159, "lon": -118.330444}, {"type": "node", "id": 4276154581, "lat": 34.0251108, "lon": -118.3433898}, {"type": "node", "id": 4276154582, "lat": 34.0251112, "lon": -118.343485}, {"type": "node", "id": 4276154797, "lat": 34.0251176, "lon": -118.3432709}, {"type": "node", "id": 4276154798, "lat": 34.0251177, "lon": -118.3432068}, {"type": "node", "id": 4276154822, "lat": 34.025161, "lon": -118.3431993}, {"type": "node", "id": 4276154823, "lat": 34.025161, "lon": -118.3432068}, {"type": "node", "id": 4276154824, "lat": 34.0251617, "lon": -118.343271}, {"type": "node", "id": 4276154825, "lat": 34.0251617, "lon": -118.3433897}, {"type": "node", "id": 4276155236, "lat": 34.0254432, "lon": -118.3431993}, {"type": "node", "id": 4276155237, "lat": 34.0254436, "lon": -118.3434853}, {"type": "node", "id": 4278753919, "lat": 33.9918798, "lon": -118.470387, "tags": {"addr:city": "Venice", "addr:housenumber": "1103", "addr:postcode": "90291", "addr:state": "CA", "addr:street": "Abbot Kinney Boulevard", "amenity": "cafe", "branch": "Venice", "brand": "Blue Bottle Coffee", "brand:en": "Blue Bottle Coffee", "brand:ja": "\u30d6\u30eb\u30fc\u30dc\u30c8\u30eb\u30b3\u30fc\u30d2\u30fc", "brand:wikidata": "Q4928917", "cuisine": "coffee_shop", "name": "Blue Bottle Coffee", "name:en": "Blue Bottle Coffee", "name:ja": "\u30d6\u30eb\u30fc\u30dc\u30c8\u30eb\u30b3\u30fc\u30d2\u30fc", "opening_hours": "Mo-Su 06:00-19:00", "phone": "+1 (510) 653-3394", "takeaway": "yes", "website": "https://bluebottlecoffee.com/"}}, {"type": "node", "id": 4280190231, "lat": 33.999838, "lon": -118.4654056, "tags": {"addr:city": "Venice", "addr:housenumber": "609", "addr:postcode": "90291", "addr:state": "CA", "addr:street": "Lincoln Boulevard", "amenity": "cafe", "name": "Juice served here", "opening_hours": "Mo-Su 08:00-17:00", "phone": "+1 310 310 8546", "takeaway": "yes", "website": "http://www.juiceservedherevenice.com/"}}, {"type": "node", "id": 4280825752, "lat": 34.05567, "lon": -118.2044258}, {"type": "node", "id": 4280825792, "lat": 34.0557647, "lon": -118.2046427}, {"type": "node", "id": 4280825795, "lat": 34.0557712, "lon": -118.2043621}, {"type": "node", "id": 4280825827, "lat": 34.0558303, "lon": -118.2044986}, {"type": "node", "id": 4280825835, "lat": 34.0558409, "lon": -118.2044919}, {"type": "node", "id": 4280825864, "lat": 34.0558761, "lon": -118.2045724}, {"type": "node", "id": 4281438171, "lat": 34.1041603, "lon": -118.2590371}, {"type": "node", "id": 4281438172, "lat": 34.1041603, "lon": -118.2590471}, {"type": "node", "id": 4281438291, "lat": 34.1041762, "lon": -118.2588665},