{
"type": "FeatureCollection",
"name": "ne_10m_ports",
"features": [
{ "type": "Feature", "properties": { "scalerank": 8, "featurecla": "Port", "name": "Sint Nicolaas", "website": "www.rocargo.com/SanNicolas.html", "natlscale": 5.0, "ne_id": 1730087247 }, "geometry": { "type": "Point", "coordinates": [ -69.9235571, 12.4375 ] } },
{ "type": "Feature", "properties": { "scalerank": 8, "featurecla": "Port", "name": "Campana", "website": "www.consejoportuario.com.ar", "natlscale": 5.0, "ne_id": 1730087249 }, "geometry": { "type": "Point", "coordinates": [ -58.9514134, -34.1533333 ] } },
{ "type": "Feature", "properties": { "scalerank": 8, "featurecla": "Port", "name": "Zarate", "website": "www.consejoportuario.com.ar", "natlscale": 5.0, "ne_id": 1730087251 }, "geometry": { "type": "Point", "coordinates": [ -59.004947, -34.0988889 ] } },
{ "type": "Feature", "properties": { "scalerank": 8, "featurecla": "Port", "name": "Puerto Belgrano/Bahia Blanca", "website": null, "natlscale": 5.0, "ne_id": 1730087255 }, "geometry": { "type": "Point", "coordinates": [ -62.1008834, -38.8944444 ] } },
{ "type": "Feature", "properties": { "scalerank": 8, "featurecla": "Port", "name": "Puerto Galvan/Bahia Blanca", "website": null, "natlscale": 5.0, "ne_id": 1730087257 }, "geometry": { "type": "Point", "coordinates": [ -62.30053, -38.7830556 ] } },
{ "type": "Feature", "properties": { "scalerank": 8, "featurecla": "Port", "name": "Ingeniero White/Bahia Blanca", "website": null, "natlscale": 5.0, "ne_id": 1730087259 }, "geometry": { "type": "Point", "coordinates": [ -62.259894, -38.7919444 ] } },
{ "type": "Feature", "properties": { "scalerank": 8, "featurecla": "Port", "name": "Saint John's", "website": "www.ab.gov.ag", "natlscale": 5.0, "ne_id": 1730087261 }, "geometry": { "type": "Point", "coordinates": [ -61.8522968, 17.1227778 ] } },
{ "type": "Feature", "properties": { "scalerank": 8, "featurecla": "Port", "name": "Fremantle", "website": "www.fremantleports.com.au", "natlscale": 5.0, "ne_id": 1730087263 }, "geometry": { "type": "Point", "coordinates": [ 115.7381037, -32.0475 ] } },
{ "type": "Feature", "properties": { "scalerank": 8, "featurecla": "Port", "name": "Botany Bay", "website": "www.sydneyports.com.au", "natlscale": 5.0, "ne_id": 1730087265 }, "geometry": { "type": "Point", "coordinates": [ 151.2095406, -33.9730556 ] } },
{ "type": "Feature", "properties": { "scalerank": 8, "featurecla": "Port", "name": "Rockhampton", "website": "www.gpcl.com.au", "natlscale": 5.0, "ne_id": 1730087267 }, "geometry": { "type": "Point", "coordinates": [ 151.2842167, -23.8511111 ] } },
{ "type": "Feature", "properties": { "scalerank": 8, "featurecla": "Port", "name": "Oostende (Ostend)", "website": "www.portofoostende.be", "natlscale": 5.0, "ne_id": 1730087269 }, "geometry": { "type": "Point", "coordinates": [ 2.9336867, 51.23 ] } },
{ "type": "Feature", "properties": { "scalerank": 8, "featurecla": "Port", "name": "Zeebrugge", "website": "www.zeebruggeport.be", "natlscale": 5.0, "ne_id": 1730087273 }, "geometry": { "type": "Point", "coordinates": [ 3.2045936, 51.3363889 ] } },
{ "type": "Feature", "properties": { "scalerank": 8, "featurecla": "Port", "name": "Burgas", "website": "www.port-burgas.com", "natlscale": 5.0, "ne_id": 1730087275 }, "geometry": { "type": "Point", "coordinates": [ 27.4583039, 42.47 ] } },
{ "type": "Feature", "properties": { "scalerank": 8, "featurecla": "Port", "name": "Mina Sulman Port", "website": "www.bahrainports.gov.bh", "natlscale": 5.0, "ne_id": 1730087277 }, "geometry": { "type": "Point", "coordinates": [ 50.6075972, 26.1986111 ] } },
{ "type": "Feature", "properties": { "scalerank": 8, "featurecla": "Port", "name": "Sitrah", "website": "www.bahrainports.gov.bh", "natlscale": 5.0, "ne_id": 1730087279 }, "geometry": { "type": "Point", "coordinates": [ 50.6588339, 26.1586111 ] } },
{ "type": "Feature", "properties": { "scalerank": 8, "featurecla": "Port", "name": "Saint George", "website": null, "natlscale": 5.0, "ne_id": 1730087281 }, "geometry": { "type": "Point", "coordinates": [ -64.6730271, 32.3794444 ] } },
{ "type": "Feature", "properties": { "scalerank": 8, "featurecla": "Port", "name": "Mucuripe", "website": "www.docasdoceara.com.br", "natlscale": 5.0, "ne_id": 1730087283 }, "geometry": { "type": "Point", "coordinates": [ -38.4732038, -3.7075 ] } },
{ "type": "Feature", "properties": { "scalerank": 8, "featurecla": "Port", "name": "Niteroi", "website": "www.portosrio.gov.br", "natlscale": 5.0, "ne_id": 1730087285 }, "geometry": { "type": "Point", "coordinates": [ -43.1246172, -22.8791667 ] } },
{ "type": "Feature", "properties": { "scalerank": 8, "featurecla": "Port", "name": "Sao Francisco do Sul", "website": "www.apsfs.sc.gov.br", "natlscale": 5.0, "ne_id": 1730087287 }, "geometry": { "type": "Point", "coordinates": [ -48.6354535, -26.2380556 ] } },
{ "type": "Feature", "properties": { "scalerank": 8, "featurecla": "Port", "name": "Chatham", "website": null, "natlscale": 5.0, "ne_id": 1730087291 }, "geometry": { "type": "Point", "coordinates": [ -65.4677267, 47.0344444 ] } },
{ "type": "Feature", "properties": { "scalerank": 8, "featurecla": "Port", "name": "Clarenville", "website": null, "natlscale": 5.0, "ne_id": 1730087293 }, "geometry": { "type": "Point", "coordinates": [ -53.9568905, 48.1633333 ] } },
{ "type": "Feature", "properties": { "scalerank": 8, "featurecla": "Port", "name": "Comox", "website": null, "natlscale": 5.0, "ne_id": 1730087295 }, "geometry": { "type": "Point", "coordinates": [ -124.9244405, 49.6708333 ] } },
{ "type": "Feature", "properties": { "scalerank": 8, "featurecla": "Port", "name": "Esquimalt", "website": null, "natlscale": 5.0, "ne_id": 1730087297 }, "geometry": { "type": "Point", "coordinates": [ -123.4343934, 48.4363889 ] } },
{ "type": "Feature", "properties": { "scalerank": 8, "featurecla": "Port", "name": "Grand Bank", "website": null, "natlscale": 5.0, "ne_id": 1730087299 }, "geometry": { "type": "Point", "coordinates": [ -55.7510601, 47.1002778 ] } },
{ "type": "Feature", "properties": { "scalerank": 8, "featurecla": "Port", "name": "North Sydney", "website": null, "natlscale": 5.0, "ne_id": 1730087301 }, "geometry": { "type": "Point", "coordinates": [ -60.2393404, 46.2088889 ] } },
{ "type": "Feature", "properties": { "scalerank": 8, "featurecla": "Port", "name": "Caraquet", "website": null, "natlscale": 5.0, "ne_id": 1730087303 }, "geometry": { "type": "Point", "coordinates": [ -64.9246172, 47.7963889 ] } },
{ "type": "Feature", "properties": { "scalerank": 8, "featurecla": "Port", "name": "Chicoutimi", "website": null, "natlscale": 5.0, "ne_id": 1730087305 }, "geometry": { "type": "Point", "coordinates": [ -71.0526502, 48.43 ] } },
{ "type": "Feature", "properties": { "scalerank": 8, "featurecla": "Port", "name": "Corner Brook", "website": "www.cornerbrookport.com", "natlscale": 5.0, "ne_id": 1730087309 }, "geometry": { "type": "Point", "coordinates": [ -57.9363369, 48.9605556 ] } },
{ "type": "Feature", "properties": { "scalerank": 8, "featurecla": "Port", "name": "Digby", "website": "www.portofdigby.ns.ca", "natlscale": 5.0, "ne_id": 1730087311 }, "geometry": { "type": "Point", "coordinates": [ -65.7522968, 44.6252778 ] } },
{ "type": "Feature", "properties": { "scalerank": 8, "featurecla": "Port", "name": "Harbour Grace", "website": null, "natlscale": 5.0, "ne_id": 1730087313 }, "geometry": { "type": "Point", "coordinates": [ -53.21702, 47.6902778 ] } },
{ "type": "Feature", "properties": { "scalerank": 8, "featurecla": "Port", "name": "Pictou", "website": "www.pictoumarineterminals.com", "natlscale": 5.0, "ne_id": 1730087315 }, "geometry": { "type": "Point", "coordinates": [ -62.704417, 45.6747222 ] } },
{ "type": "Feature", "properties": { "scalerank": 8, "featurecla": "Port", "name": "Shelburne", "website": null, "natlscale": 5.0, "ne_id": 1730087317 }, "geometry": { "type": "Point", "coordinates": [ -65.3177267, 43.7497222 ] } },
{ "type": "Feature", "properties": { "scalerank": 8, "featurecla": "Port", "name": "Sorel", "website": null, "natlscale": 5.0, "ne_id": 1730087319 }, "geometry": { "type": "Point", "coordinates": [ -73.1180801, 46.0411111 ] } },
{ "type": "Feature", "properties": { "scalerank": 8, "featurecla": "Port", "name": "Springdale", "website": null, "natlscale": 5.0, "ne_id": 1730087321 }, "geometry": { "type": "Point", "coordinates": [ -56.059894, 49.4997222 ] } },
{ "type": "Feature", "properties": { "scalerank": 8, "featurecla": "Port", "name": "Saint-John's", "website": "www.sjpa.com", "natlscale": 5.0, "ne_id": 1730087323 }, "geometry": { "type": "Point", "coordinates": [ -52.6923439, 47.5625 ] } },
{ "type": "Feature", "properties": { "scalerank": 8, "featurecla": "Port", "name": "Coronel", "website": null, "natlscale": 5.0, "ne_id": 1730087327 }, "geometry": { "type": "Point", "coordinates": [ -73.1533569, -37.0283333 ] } },
{ "type": "Feature", "properties": { "scalerank": 8, "featurecla": "Port", "name": "Lota", "website": null, "natlscale": 5.0, "ne_id": 1730087329 }, "geometry": { "type": "Point", "coordinates": [ -73.1584806, -37.0980556 ] } },
{ "type": "Feature", "properties": { "scalerank": 8, "featurecla": "Port", "name": "Talcahuano", "website": "www.puertotalcahuano.cl", "natlscale": 5.0, "ne_id": 1730087331 }, "geometry": { "type": "Point", "coordinates": [ -73.1022968, -36.7052778 ] } },
{ "type": "Feature", "properties": { "scalerank": 8, "featurecla": "Port", "name": "San Antonio", "website": "www.sanantonioport.com", "natlscale": 5.0, "ne_id": 1730087333 }, "geometry": { "type": "Point", "coordinates": [ -71.6180801, -33.5875 ] } },
{ "type": "Feature", "properties": { "scalerank": 8, "featurecla": "Port", "name": "Haimen", "website": null, "natlscale": 5.0, "ne_id": 1730087335 }, "geometry": { "type": "Point", "coordinates": [ 121.4418139, 28.6902778 ] } },
{ "type": "Feature", "properties": { "scalerank": 8, "featurecla": "Port", "name": "Qinhuangdao", "website": null, "natlscale": 5.0, "ne_id": 1730087337 }, "geometry": { "type": "Point", "coordinates": [ 119.5859835, 39.9066667 ] } },
{ "type": "Feature", "properties": { "scalerank": 8, "featurecla": "Port", "name": "Yantian", "website": "www.yantian-port.com", "natlscale": 5.0, "ne_id": 1730087339 }, "geometry": { "type": "Point", "coordinates": [ 114.26702, 22.5741667 ] } },
{ "type": "Feature", "properties": { "scalerank": 8, "featurecla": "Port", "name": "Yingkou", "website": null, "natlscale": 5.0, "ne_id": 1730087341 }, "geometry": { "type": "Point", "coordinates": [ 122.2351001, 40.6958333 ] } },
{ "type": "Feature", "properties": { "scalerank": 8, "featurecla": "Port", "name": "Moin", "website": "www.japdeva.go.cr", "natlscale": 5.0, "ne_id": 1730087345 }, "geometry": { "type": "Point", "coordinates": [ -83.0740872, 10.0055556 ] } },
{ "type": "Feature", "properties": { "scalerank": 8, "featurecla": "Port", "name": "Banes", "website": null, "natlscale": 5.0, "ne_id": 1730087347 }, "geometry": { "type": "Point", "coordinates": [ -75.7033569, 20.9191667 ] } },
{ "type": "Feature", "properties": { "scalerank": 8, "featurecla": "Port", "name": "Caibarien", "website": null, "natlscale": 5.0, "ne_id": 1730087349 }, "geometry": { "type": "Point", "coordinates": [ -79.4693168, 22.5291667 ] } },
{ "type": "Feature", "properties": { "scalerank": 8, "featurecla": "Port", "name": "Isabela de Sagua", "website": null, "natlscale": 5.0, "ne_id": 1730087351 }, "geometry": { "type": "Point", "coordinates": [ -80.0075972, 22.9402778 ] } },
{ "type": "Feature", "properties": { "scalerank": 8, "featurecla": "Port", "name": "Nuevitas", "website": null, "natlscale": 5.0, "ne_id": 1730087353 }, "geometry": { "type": "Point", "coordinates": [ -77.2395171, 21.5630556 ] } },
{ "type": "Feature", "properties": { "scalerank": 8, "featurecla": "Port", "name": "Famagusta", "website": null, "natlscale": 5.0, "ne_id": 1730087355 }, "geometry": { "type": "Point", "coordinates": [ 33.9400471, 35.1277778 ] } },
{ "type": "Feature", "properties": { "scalerank": 8, "featurecla": "Port", "name": "Cuxhaven", "website": "www.cuxport.de", "natlscale": 5.0, "ne_id": 1730087357 }, "geometry": { "type": "Point", "coordinates": [ 8.7072438, 53.8647222 ] } },
{ "type": "Feature", "properties": { "scalerank": 8, "featurecla": "Port", "name": "Eckernforde", "website": "www.stadtwerke-eckernfoerde.de", "natlscale": 5.0, "ne_id": 1730087359 }, "geometry": { "type": "Point", "coordinates": [ 9.8358068, 54.4736111 ] } },
{ "type": "Feature", "properties": { "scalerank": 8, "featurecla": "Port", "name": "Nordenham", "website": null, "natlscale": 5.0, "ne_id": 1730087363 }, "geometry": { "type": "Point", "coordinates": [ 8.4895171, 53.4875 ] } },
{ "type": "Feature", "properties": { "scalerank": 8, "featurecla": "Port", "name": "Papenburg", "website": null, "natlscale": 5.0, "ne_id": 1730087365 }, "geometry": { "type": "Point", "coordinates": [ 7.3689635, 53.0963889 ] } },
{ "type": "Feature", "properties": { "scalerank": 8, "featurecla": "Port", "name": "Wismar", "website": "www.hafen-wismar.de", "natlscale": 5.0, "ne_id": 1730087367 }, "geometry": { "type": "Point", "coordinates": [ 11.4391637, 53.9063889 ] } },
{ "type": "Feature", "properties": { "scalerank": 8, "featurecla": "Port", "name": "Nyborg", "website": "www.adp-as.com", "natlscale": 5.0, "ne_id": 1730087369 }, "geometry": { "type": "Point", "coordinates": [ 10.8068905, 55.2988889 ] } },
{ "type": "Feature", "properties": { "scalerank": 8, "featurecla": "Port", "name": "Helsingor", "website": "www.helsingoerhavn.dk", "natlscale": 5.0, "ne_id": 1730087371 }, "geometry": { "type": "Point", "coordinates": [ 12.61702, 56.0344444 ] } },
{ "type": "Feature", "properties": { "scalerank": 8, "featurecla": "Port", "name": "Odense", "website": null, "natlscale": 5.0, "ne_id": 1730087373 }, "geometry": { "type": "Point", "coordinates": [ 10.5249706, 55.4663889 ] } },
{ "type": "Feature", "properties": { "scalerank": 8, "featurecla": "Port", "name": "Nyborg", "website": "www.nyborg.dk/Engelsk/Tourism/NyborgsHarbours", "natlscale": 5.0, "ne_id": 1730087375 }, "geometry": { "type": "Point", "coordinates": [ 10.7881037, 55.3069444 ] } },
{ "type": "Feature", "properties": { "scalerank": 8, "featurecla": "Port", "name": "Frederikshavn", "website": "www.frederikshavnhavn.dk", "natlscale": 5.0, "ne_id": 1730087377 }, "geometry": { "type": "Point", "coordinates": [ 10.5414605, 57.4377778 ] } },
{ "type": "Feature", "properties": { "scalerank": 8, "featurecla": "Port", "name": "Haderslev", "website": null, "natlscale": 5.0, "ne_id": 1730087381 }, "geometry": { "type": "Point", "coordinates": [ 9.504417, 55.2511111 ] } },
{ "type": "Feature", "properties": { "scalerank": 8, "featurecla": "Port", "name": "Horsens", "website": "www.horsenshavn.dk", "natlscale": 5.0, "ne_id": 1730087383 }, "geometry": { "type": "Point", "coordinates": [ 9.8684335, 55.8541667 ] } },
{ "type": "Feature", "properties": { "scalerank": 8, "featurecla": "Port", "name": "Kalundborg", "website": "www.portofkalundborg.dk", "natlscale": 5.0, "ne_id": 1730087385 }, "geometry": { "type": "Point", "coordinates": [ 11.0859835, 55.6694444 ] } },
{ "type": "Feature", "properties": { "scalerank": 8, "featurecla": "Port", "name": "Kolding", "website": "www.koldingport.dk", "natlscale": 5.0, "ne_id": 1730087387 }, "geometry": { "type": "Point", "coordinates": [ 9.493404, 55.4927778 ] } },
{ "type": "Feature", "properties": { "scalerank": 8, "featurecla": "Port", "name": "Nakskov", "website": null, "natlscale": 5.0, "ne_id": 1730087389 }, "geometry": { "type": "Point", "coordinates": [ 11.1210836, 54.8322222 ] } },
{ "type": "Feature", "properties": { "scalerank": 8, "featurecla": "Port", "name": "Nykobing Falster", "website": "www.guldborgsundhavne.dk", "natlscale": 5.0, "ne_id": 1730087391 }, "geometry": { "type": "Point", "coordinates": [ 11.8570671, 54.7708333 ] } },
{ "type": "Feature", "properties": { "scalerank": 8, "featurecla": "Port", "name": "Randers", "website": "www.randershavn.dk", "natlscale": 5.0, "ne_id": 1730087393 }, "geometry": { "type": "Point", "coordinates": [ 10.0526502, 56.4602778 ] } },
{ "type": "Feature", "properties": { "scalerank": 8, "featurecla": "Port", "name": "Rudkobing", "website": "www.langelandkommune.dk", "natlscale": 5.0, "ne_id": 1730087395 }, "geometry": { "type": "Point", "coordinates": [ 10.704947, 54.9397222 ] } },
{ "type": "Feature", "properties": { "scalerank": 8, "featurecla": "Port", "name": "Svendborg", "website": null, "natlscale": 5.0, "ne_id": 1730087399 }, "geometry": { "type": "Point", "coordinates": [ 10.61702, 55.0586111 ] } },
{ "type": "Feature", "properties": { "scalerank": 8, "featurecla": "Port", "name": "Vejle", "website": "www.vejleport.dk", "natlscale": 5.0, "ne_id": 1730087401 }, "geometry": { "type": "Point", "coordinates": [ 9.5519435, 55.7055556 ] } },
{ "type": "Feature", "properties": { "scalerank": 8, "featurecla": "Port", "name": "Skagen", "website": "www.skagenhavn.dk", "natlscale": 5.0, "ne_id": 1730087403 }, "geometry": { "type": "Point", "coordinates": [ 10.5888104, 57.7186111 ] } },
{ "type": "Feature", "properties": { "scalerank": 8, "featurecla": "Port", "name": "Puerto Plata", "website": "www.apordom.gov.do", "natlscale": 5.0, "ne_id": 1730087405 }, "geometry": { "type": "Point", "coordinates": [ -70.70053, 19.8036111 ] } },
{ "type": "Feature", "properties": { "scalerank": 8, "featurecla": "Port", "name": "Rio Haina", "website": "www.apordom.gov.do", "natlscale": 5.0, "ne_id": 1730087407 }, "geometry": { "type": "Point", "coordinates": [ -70.0180801, 18.4202778 ] } },
{ "type": "Feature", "properties": { "scalerank": 8, "featurecla": "Port", "name": "Mostaganem", "website": null, "natlscale": 5.0, "ne_id": 1730087409 }, "geometry": { "type": "Point", "coordinates": [ 0.0712603, 35.9344444 ] } },
{ "type": "Feature", "properties": { "scalerank": 8, "featurecla": "Port", "name": "Damietta", "website": "www.dam-port.com", "natlscale": 5.0, "ne_id": 1730087411 }, "geometry": { "type": "Point", "coordinates": [ 31.7591873, 31.4666667 ] } },
{ "type": "Feature", "properties": { "scalerank": 8, "featurecla": "Port", "name": "Safaga", "website": "www.mts.gov.eg", "natlscale": 5.0, "ne_id": 1730087413 }, "geometry": { "type": "Point", "coordinates": [ 33.9412839, 26.7422222 ] } },
{ "type": "Feature", "properties": { "scalerank": 8, "featurecla": "Port", "name": "Algeciras", "website": "www.apba.es", "natlscale": 5.0, "ne_id": 1730087417 }, "geometry": { "type": "Point", "coordinates": [ -5.4003534, 36.1477778 ] } },
{ "type": "Feature", "properties": { "scalerank": 8, "featurecla": "Port", "name": "Aviles", "website": "www.avilesport.com", "natlscale": 5.0, "ne_id": 1730087419 }, "geometry": { "type": "Point", "coordinates": [ -5.9200236, 43.5786111 ] } },
{ "type": "Feature", "properties": { "scalerank": 8, "featurecla": "Port", "name": "Ferrol", "website": "www.apfsc.com", "natlscale": 5.0, "ne_id": 1730087421 }, "geometry": { "type": "Point", "coordinates": [ -8.2508834, 43.4797222 ] } },
{ "type": "Feature", "properties": { "scalerank": 8, "featurecla": "Port", "name": "Huelva", "website": "www.puertohuelva.com", "natlscale": 5.0, "ne_id": 1730087423 }, "geometry": { "type": "Point", "coordinates": [ -6.9358068, 37.1927778 ] } },
{ "type": "Feature", "properties": { "scalerank": 8, "featurecla": "Port", "name": "Pasajes", "website": "www.puertopasajes.net", "natlscale": 5.0, "ne_id": 1730087425 }, "geometry": { "type": "Point", "coordinates": [ -1.9187868, 43.3233333 ] } },
{ "type": "Feature", "properties": { "scalerank": 8, "featurecla": "Port", "name": "Rota", "website": null, "natlscale": 5.0, "ne_id": 1730087427 }, "geometry": { "type": "Point", "coordinates": [ -6.3345701, 36.6194444 ] } },
{ "type": "Feature", "properties": { "scalerank": 8, "featurecla": "Port", "name": "Cadiz", "website": "www.puertocadiz.com", "natlscale": 5.0, "ne_id": 1730087429 }, "geometry": { "type": "Point", "coordinates": [ -6.2588339, 36.52 ] } },
{ "type": "Feature", "properties": { "scalerank": 8, "featurecla": "Port", "name": "Kotka", "website": "www.portofkotka.fi", "natlscale": 5.0, "ne_id": 1730087431 }, "geometry": { "type": "Point", "coordinates": [ 26.9418139, 60.4611111 ] } },
{ "type": "Feature", "properties": { "scalerank": 8, "featurecla": "Port", "name": "Veitsiluoto", "website": null, "natlscale": 5.0, "ne_id": 1730087435 }, "geometry": { "type": "Point", "coordinates": [ 24.6166667, 65.6830556 ] } },
{ "type": "Feature", "properties": { "scalerank": 8, "featurecla": "Port", "name": "Arcachon", "website": "www.arcachon.com", "natlscale": 5.0, "ne_id": 1730087437 }, "geometry": { "type": "Point", "coordinates": [ -1.1423439, 44.6591667 ] } },
{ "type": "Feature", "properties": { "scalerank": 8, "featurecla": "Port", "name": "Deauville", "website": null, "natlscale": 5.0, "ne_id": 1730087439 }, "geometry": { "type": "Point", "coordinates": [ 0.0733804, 49.3658333 ] } },
{ "type": "Feature", "properties": { "scalerank": 8, "featurecla": "Port", "name": "Fecamp", "website": "www.fecamp.cci.fr", "natlscale": 5.0, "ne_id": 1730087441 }, "geometry": { "type": "Point", "coordinates": [ 0.3694935, 49.7619444 ] } },
{ "type": "Feature", "properties": { "scalerank": 8, "featurecla": "Port", "name": "La Pallice", "website": "www.larochelle.port.fr", "natlscale": 5.0, "ne_id": 1730087443 }, "geometry": { "type": "Point", "coordinates": [ -1.2239105, 46.1572222 ] } },
{ "type": "Feature", "properties": { "scalerank": 8, "featurecla": "Port", "name": "Saint-Malo", "website": "www.saint-malo.cci.fr", "natlscale": 5.0, "ne_id": 1730087445 }, "geometry": { "type": "Point", "coordinates": [ -2.0228504, 48.6444444 ] } },
{ "type": "Feature", "properties": { "scalerank": 8, "featurecla": "Port", "name": "Sete", "website": "www.sete.port.fr", "natlscale": 5.0, "ne_id": 1730087447 }, "geometry": { "type": "Point", "coordinates": [ 3.7102473, 43.4047222 ] } },
{ "type": "Feature", "properties": { "scalerank": 8, "featurecla": "Port", "name": "Greenock", "website": "www.clydeport.co.uk", "natlscale": 5.0, "ne_id": 1730087449 }, "geometry": { "type": "Point", "coordinates": [ -4.7567138, 55.9547222 ] } },
{ "type": "Feature", "properties": { "scalerank": 8, "featurecla": "Port", "name": "Poole", "website": "www.phc.co.uk", "natlscale": 5.0, "ne_id": 1730087453 }, "geometry": { "type": "Point", "coordinates": [ -1.9865135, 50.7144444 ] } },
{ "type": "Feature", "properties": { "scalerank": 8, "featurecla": "Port", "name": "Falmouth", "website": "www.falmouthport.co.uk", "natlscale": 5.0, "ne_id": 1730087455 }, "geometry": { "type": "Point", "coordinates": [ -5.0535336, 50.1527778 ] } },
{ "type": "Feature", "properties": { "scalerank": 8, "featurecla": "Port", "name": "Leith", "website": "www.forthports.co.uk", "natlscale": 5.0, "ne_id": 1730087457 }, "geometry": { "type": "Point", "coordinates": [ -3.1717903, 55.9825 ] } },
{ "type": "Feature", "properties": { "scalerank": 8, "featurecla": "Port", "name": "Montrose", "website": "www.montroseport.co.uk", "natlscale": 5.0, "ne_id": 1730087459 }, "geometry": { "type": "Point", "coordinates": [ -2.4679034, 56.7044444 ] } },
{ "type": "Feature", "properties": { "scalerank": 8, "featurecla": "Port", "name": "Newport", "website": "www.abports.co.uk/custinfo/ports/newport.htm", "natlscale": 5.0, "ne_id": 1730087461 }, "geometry": { "type": "Point", "coordinates": [ -2.9847468, 51.5588889 ] } },
{ "type": "Feature", "properties": { "scalerank": 8, "featurecla": "Port", "name": "Sunderland", "website": "www.portofsunderland.org.uk", "natlscale": 5.0, "ne_id": 1730087463 }, "geometry": { "type": "Point", "coordinates": [ -1.3561837, 54.9069444 ] } },
{ "type": "Feature", "properties": { "scalerank": 8, "featurecla": "Port", "name": "Teesport", "website": "www.pdports.co.uk", "natlscale": 5.0, "ne_id": 1730087465 }, "geometry": { "type": "Point", "coordinates": [ -1.1570671, 54.6080556 ] } },
{ "type": "Feature", "properties": { "scalerank": 8, "featurecla": "Port", "name": "Poti", "website": "www.potiseaport.com", "natlscale": 5.0, "ne_id": 1730087467 }, "geometry": { "type": "Point", "coordinates": [ 41.6528269, 42.155 ] } },
{ "type": "Feature", "properties": { "scalerank": 8, "featurecla": "Port", "name": "Piraeus", "website": null, "natlscale": 5.0, "ne_id": 1730087471 }, "geometry": { "type": "Point", "coordinates": [ 23.6565371, 37.9372222 ] } },
{ "type": "Feature", "properties": { "scalerank": 8, "featurecla": "Port", "name": "Piraeus", "website": "www.olp.gr", "natlscale": 5.0, "ne_id": 1730087473 }, "geometry": { "type": "Point", "coordinates": [ 23.6336867, 37.9411111 ] } },
{ "type": "Feature", "properties": { "scalerank": 8, "featurecla": "Port", "name": "Piraeus", "website": "www.medmarinas.com", "natlscale": 5.0, "ne_id": 1730087475 }, "geometry": { "type": "Point", "coordinates": [ 23.6430506, 37.9344444 ] } },
{ "type": "Feature", "properties": { "scalerank": 8, "featurecla": "Port", "name": "Saint George's", "website": "www.grenadacruiseport.com", "natlscale": 5.0, "ne_id": 1730087477 }, "geometry": { "type": "Point", "coordinates": [ -61.75053, 12.0472222 ] } },
{ "type": "Feature", "properties": { "scalerank": 8, "featurecla": "Port", "name": "Cayenne", "website": "www.guyane.cci.fr", "natlscale": 5.0, "ne_id": 1730087479 }, "geometry": { "type": "Point", "coordinates": [ -52.271967, 4.8530556 ] } },
{ "type": "Feature", "properties": { "scalerank": 8, "featurecla": "Port", "name": "Bakar", "website": null, "natlscale": 5.0, "ne_id": 1730087481 }, "geometry": { "type": "Point", "coordinates": [ 14.5407538, 45.2997222 ] } },
{ "type": "Feature", "properties": { "scalerank": 8, "featurecla": "Port", "name": "Rovinj", "website": null, "natlscale": 5.0, "ne_id": 1730087483 }, "geometry": { "type": "Point", "coordinates": [ 13.6349234, 45.0805556 ] } },
{ "type": "Feature", "properties": { "scalerank": 8, "featurecla": "Port", "name": "Sibenik", "website": "www.portauthority-sibenik.hr", "natlscale": 5.0, "ne_id": 1730087485 }, "geometry": { "type": "Point", "coordinates": [ 15.8916372, 43.7263889 ] } },
{ "type": "Feature", "properties": { "scalerank": 8, "featurecla": "Port", "name": "Gonaives", "website": "www.apn.gouv.ht", "natlscale": 5.0, "ne_id": 1730087489 }, "geometry": { "type": "Point", "coordinates": [ -72.7037103, 19.4483333 ] } },
{ "type": "Feature", "properties": { "scalerank": 8, "featurecla": "Port", "name": "Sorong", "website": null, "natlscale": 5.0, "ne_id": 1730087491 }, "geometry": { "type": "Point", "coordinates": [ 131.2425206, -0.8769444 ] } },
{ "type": "Feature", "properties": { "scalerank": 8, "featurecla": "Port", "name": "Alleppey", "website": null, "natlscale": 5.0, "ne_id": 1730087493 }, "geometry": { "type": "Point", "coordinates": [ 76.310424, 9.4919444 ] } },
{ "type": "Feature", "properties": { "scalerank": 8, "featurecla": "Port", "name": "Kakinada", "website": "www.kakinadaseaports.in", "natlscale": 5.0, "ne_id": 1730087495 }, "geometry": { "type": "Point", "coordinates": [ 82.2746172, 16.9777778 ] } },
{ "type": "Feature", "properties": { "scalerank": 8, "featurecla": "Port", "name": "Tuticorin", "website": "tuticorinport.gov.in", "natlscale": 5.0, "ne_id": 1730087497 }, "geometry": { "type": "Point", "coordinates": [ 78.1870436, 8.7583333 ] } },
{ "type": "Feature", "properties": { "scalerank": 8, "featurecla": "Port", "name": "Sligo", "website": null, "natlscale": 5.0, "ne_id": 1730087499 }, "geometry": { "type": "Point", "coordinates": [ -8.4712603, 54.2716667 ] } },
{ "type": "Feature", "properties": { "scalerank": 8, "featurecla": "Port", "name": "Licata", "website": null, "natlscale": 5.0, "ne_id": 1730087501 }, "geometry": { "type": "Point", "coordinates": [ 13.9382803, 37.0902778 ] } },
{ "type": "Feature", "properties": { "scalerank": 8, "featurecla": "Port", "name": "Alghero", "website": null, "natlscale": 5.0, "ne_id": 1730087503 }, "geometry": { "type": "Point", "coordinates": [ 8.3079505, 40.5627778 ] } },
{ "type": "Feature", "properties": { "scalerank": 8, "featurecla": "Port", "name": "Bagnoli", "website": null, "natlscale": 5.0, "ne_id": 1730087507 }, "geometry": { "type": "Point", "coordinates": [ 14.1600707, 40.8033333 ] } },
{ "type": "Feature", "properties": { "scalerank": 8, "featurecla": "Port", "name": "Barletta", "website": null, "natlscale": 5.0, "ne_id": 1730087509 }, "geometry": { "type": "Point", "coordinates": [ 16.2877503, 41.3255556 ] } },
{ "type": "Feature", "properties": { "scalerank": 8, "featurecla": "Port", "name": "Brindisi", "website": "www.porto.br.it", "natlscale": 5.0, "ne_id": 1730087511 }, "geometry": { "type": "Point", "coordinates": [ 17.9560071, 40.6463889 ] } },
{ "type": "Feature", "properties": { "scalerank": 8, "featurecla": "Port", "name": "Crotone", "website": null, "natlscale": 5.0, "ne_id": 1730087513 }, "geometry": { "type": "Point", "coordinates": [ 17.1233804, 39.0861111 ] } },
{ "type": "Feature", "properties": { "scalerank": 8, "featurecla": "Port", "name": "Gallipoli", "website": null, "natlscale": 5.0, "ne_id": 1730087515 }, "geometry": { "type": "Point", "coordinates": [ 17.9756773, 40.0558333 ] } },
{ "type": "Feature", "properties": { "scalerank": 8, "featurecla": "Port", "name": "Imperia", "website": null, "natlscale": 5.0, "ne_id": 1730087517 }, "geometry": { "type": "Point", "coordinates": [ 8.026914, 43.8827778 ] } },
{ "type": "Feature", "properties": { "scalerank": 8, "featurecla": "Port", "name": "La Maddalena", "website": null, "natlscale": 5.0, "ne_id": 1730087519 }, "geometry": { "type": "Point", "coordinates": [ 9.409364, 41.2133333 ] } },
{ "type": "Feature", "properties": { "scalerank": 8, "featurecla": "Port", "name": "La Spezia", "website": "www.portolaspezia.it", "natlscale": 5.0, "ne_id": 1730087521 }, "geometry": { "type": "Point", "coordinates": [ 9.8503534, 44.0872222 ] } },
{ "type": "Feature", "properties": { "scalerank": 8, "featurecla": "Port", "name": "Marsala", "website": null, "natlscale": 5.0, "ne_id": 1730087525 }, "geometry": { "type": "Point", "coordinates": [ 12.4354535, 37.7897222 ] } },
{ "type": "Feature", "properties": { "scalerank": 8, "featurecla": "Port", "name": "Messina", "website": null, "natlscale": 5.0, "ne_id": 1730087527 }, "geometry": { "type": "Point", "coordinates": [ 15.5591873, 38.2002778 ] } },
{ "type": "Feature", "properties": { "scalerank": 8, "featurecla": "Port", "name": "Molfetta", "website": null, "natlscale": 5.0, "ne_id": 1730087529 }, "geometry": { "type": "Point", "coordinates": [ 16.5877503, 41.2083333 ] } },
{ "type": "Feature", "properties": { "scalerank": 8, "featurecla": "Port", "name": "Monfalcone", "website": "www.porto.monfalcone.gorizia.it", "natlscale": 5.0, "ne_id": 1730087531 }, "geometry": { "type": "Point", "coordinates": [ 13.5526502, 45.7886111 ] } },
{ "type": "Feature", "properties": { "scalerank": 8, "featurecla": "Port", "name": "Monopoli", "website": null, "natlscale": 5.0, "ne_id": 1730087533 }, "geometry": { "type": "Point", "coordinates": [ 17.3003534, 40.9561111 ] } },
{ "type": "Feature", "properties": { "scalerank": 8, "featurecla": "Port", "name": "Pesaro", "website": null, "natlscale": 5.0, "ne_id": 1730087535 }, "geometry": { "type": "Point", "coordinates": [ 12.9024735, 43.9208333 ] } },
{ "type": "Feature", "properties": { "scalerank": 8, "featurecla": "Port", "name": "Porto Torres", "website": null, "natlscale": 5.0, "ne_id": 1730087537 }, "geometry": { "type": "Point", "coordinates": [ 8.3921673, 40.8436111 ] } },
{ "type": "Feature", "properties": { "scalerank": 8, "featurecla": "Port", "name": "Ravenna", "website": "www.port.ravenna.it", "natlscale": 5.0, "ne_id": 1730087539 }, "geometry": { "type": "Point", "coordinates": [ 12.2503534, 44.4622222 ] } },
{ "type": "Feature", "properties": { "scalerank": 8, "featurecla": "Port", "name": "Siracusa", "website": null, "natlscale": 5.0, "ne_id": 1730087543 }, "geometry": { "type": "Point", "coordinates": [ 15.2875736, 37.0661111 ] } },
{ "type": "Feature", "properties": { "scalerank": 8, "featurecla": "Port", "name": "Taranto", "website": "www.port.taranto.it", "natlscale": 5.0, "ne_id": 1730087545 }, "geometry": { "type": "Point", "coordinates": [ 17.188987, 40.4880556 ] } },
{ "type": "Feature", "properties": { "scalerank": 8, "featurecla": "Port", "name": "Torre Annunziata", "website": null, "natlscale": 5.0, "ne_id": 1730087547 }, "geometry": { "type": "Point", "coordinates": [ 14.442874, 40.75 ] } },
{ "type": "Feature", "properties": { "scalerank": 8, "featurecla": "Port", "name": "Omura", "website": "www.city.omura.nagasaki.jp", "natlscale": 5.0, "ne_id": 1730087549 }, "geometry": { "type": "Point", "coordinates": [ 129.9503534, 32.9016667 ] } },
{ "type": "Feature", "properties": { "scalerank": 8, "featurecla": "Port", "name": "Amagasaki", "website": null, "natlscale": 5.0, "ne_id": 1730087551 }, "geometry": { "type": "Point", "coordinates": [ 135.3833333, 34.6913889 ] } },
{ "type": "Feature", "properties": { "scalerank": 8, "featurecla": "Port", "name": "Fushiki", "website": null, "natlscale": 5.0, "ne_id": 1730087553 }, "geometry": { "type": "Point", "coordinates": [ 137.1084806, 36.7758333 ] } },
{ "type": "Feature", "properties": { "scalerank": 8, "featurecla": "Port", "name": "Imabari", "website": null, "natlscale": 5.0, "ne_id": 1730087555 }, "geometry": { "type": "Point", "coordinates": [ 133.0061837, 34.0680556 ] } },
{ "type": "Feature", "properties": { "scalerank": 8, "featurecla": "Port", "name": "Iwakuni", "website": null, "natlscale": 5.0, "ne_id": 1730087557 }, "geometry": { "type": "Point", "coordinates": [ 132.2352768, 34.1769444 ] } },
{ "type": "Feature", "properties": { "scalerank": 8, "featurecla": "Port", "name": "Kainan", "website": null, "natlscale": 5.0, "ne_id": 1730087561 }, "geometry": { "type": "Point", "coordinates": [ 135.188457, 34.1530556 ] } },
{ "type": "Feature", "properties": { "scalerank": 8, "featurecla": "Port", "name": "Kanazawa", "website": "www.pref.ishikawa.jp", "natlscale": 5.0, "ne_id": 1730087563 }, "geometry": { "type": "Point", "coordinates": [ 136.6065371, 36.6169444 ] } },
{ "type": "Feature", "properties": { "scalerank": 8, "featurecla": "Port", "name": "Kawasaki", "website": "www.city.kawasaki.jp/58/58yuuti/home/etop.html", "natlscale": 5.0, "ne_id": 1730087565 }, "geometry": { "type": "Point", "coordinates": [ 139.7437574, 35.5063889 ] } },
{ "type": "Feature", "properties": { "scalerank": 8, "featurecla": "Port", "name": "Kokura", "website": "www.kitaqport.or.jp", "natlscale": 5.0, "ne_id": 1730087567 }, "geometry": { "type": "Point", "coordinates": [ 130.8735571, 33.9083333 ] } },
{ "type": "Feature", "properties": { "scalerank": 8, "featurecla": "Port", "name": "Maizuru", "website": "www.port.maizuru.kyoto.jp", "natlscale": 5.0, "ne_id": 1730087569 }, "geometry": { "type": "Point", "coordinates": [ 135.3852768, 35.4816667 ] } },
{ "type": "Feature", "properties": { "scalerank": 8, "featurecla": "Port", "name": "Matsusaka", "website": "www.info.city.tsu.mie.jp", "natlscale": 5.0, "ne_id": 1730087571 }, "geometry": { "type": "Point", "coordinates": [ 136.5533569, 34.6080556 ] } },
{ "type": "Feature", "properties": { "scalerank": 8, "featurecla": "Port", "name": "Miyazu", "website": null, "natlscale": 5.0, "ne_id": 1730087573 }, "geometry": { "type": "Point", "coordinates": [ 135.193404, 35.5433333 ] } },
{ "type": "Feature", "properties": { "scalerank": 8, "featurecla": "Port", "name": "Muroran", "website": null, "natlscale": 5.0, "ne_id": 1730087575 }, "geometry": { "type": "Point", "coordinates": [ 140.9540636, 42.3358333 ] } },
{ "type": "Feature", "properties": { "scalerank": 8, "featurecla": "Port", "name": "Niigata", "website": "www.pref.niigata.lg.jp/kowanshinko/1208883684365.html", "natlscale": 5.0, "ne_id": 1730087579 }, "geometry": { "type": "Point", "coordinates": [ 139.1247939, 37.955 ] } },
{ "type": "Feature", "properties": { "scalerank": 8, "featurecla": "Port", "name": "Saganoseki", "website": null, "natlscale": 5.0, "ne_id": 1730087581 }, "geometry": { "type": "Point", "coordinates": [ 131.8693168, 33.2513889 ] } },
{ "type": "Feature", "properties": { "scalerank": 8, "featurecla": "Port", "name": "Sasebo", "website": "www.city.sasebo.nagasaki.jp", "natlscale": 5.0, "ne_id": 1730087583 }, "geometry": { "type": "Point", "coordinates": [ 129.7077739, 33.1569444 ] } },
{ "type": "Feature", "properties": { "scalerank": 8, "featurecla": "Port", "name": "Shimizu", "website": "www.portofshimizu.com", "natlscale": 5.0, "ne_id": 1730087585 }, "geometry": { "type": "Point", "coordinates": [ 138.509894, 35.0144444 ] } },
{ "type": "Feature", "properties": { "scalerank": 8, "featurecla": "Port", "name": "Shimotsu", "website": null, "natlscale": 5.0, "ne_id": 1730087587 }, "geometry": { "type": "Point", "coordinates": [ 135.1333333, 34.1163889 ] } },
{ "type": "Feature", "properties": { "scalerank": 8, "featurecla": "Port", "name": "Wakayama", "website": null, "natlscale": 5.0, "ne_id": 1730087589 }, "geometry": { "type": "Point", "coordinates": [ 135.1270907, 34.2230556 ] } },
{ "type": "Feature", "properties": { "scalerank": 8, "featurecla": "Port", "name": "Yokosuka", "website": "www.city.yokosuka.kanagawa.jp/minato", "natlscale": 5.0, "ne_id": 1730087591 }, "geometry": { "type": "Point", "coordinates": [ 139.654417, 35.3044444 ] } },
{ "type": "Feature", "properties": { "scalerank": 8, "featurecla": "Port", "name": "Galle", "website": "www.slpa.lk", "natlscale": 5.0, "ne_id": 1730087593 }, "geometry": { "type": "Point", "coordinates": [ 80.2249705, 6.0333333 ] } },
{ "type": "Feature", "properties": { "scalerank": 8, "featurecla": "Port", "name": "Ventspils", "website": "www.portofventspils.lv", "natlscale": 5.0, "ne_id": 1730087597 }, "geometry": { "type": "Point", "coordinates": [ 21.5370436, 57.4030556 ] } },
{ "type": "Feature", "properties": { "scalerank": 8, "featurecla": "Port", "name": "Frontera", "website": null, "natlscale": 5.0, "ne_id": 1730087599 }, "geometry": { "type": "Point", "coordinates": [ -92.6521201, 18.5302778 ] } },
{ "type": "Feature", "properties": { "scalerank": 8, "featurecla": "Port", "name": "Minatitlan", "website": null, "natlscale": 5.0, "ne_id": 1730087601 }, "geometry": { "type": "Point", "coordinates": [ -94.5345701, 17.9758333 ] } },
{ "type": "Feature", "properties": { "scalerank": 8, "featurecla": "Port", "name": "Pajaritos", "website": null, "natlscale": 5.0, "ne_id": 1730087603 }, "geometry": { "type": "Point", "coordinates": [ -94.40053, 18.1275 ] } },
{ "type": "Feature", "properties": { "scalerank": 8, "featurecla": "Port", "name": "Santa Rosalia", "website": "www.bajaport.com", "natlscale": 5.0, "ne_id": 1730087605 }, "geometry": { "type": "Point", "coordinates": [ -112.2584806, 27.3391667 ] } },
{ "type": "Feature", "properties": { "scalerank": 8, "featurecla": "Port", "name": "Progreso", "website": "www.puertosyucatan.com", "natlscale": 5.0, "ne_id": 1730087607 }, "geometry": { "type": "Point", "coordinates": [ -89.6705536, 21.3136111 ] } },
{ "type": "Feature", "properties": { "scalerank": 8, "featurecla": "Port", "name": "Tuxpan", "website": "www.puerto-de-tuxpan.com.mx", "natlscale": 5.0, "ne_id": 1730087609 }, "geometry": { "type": "Point", "coordinates": [ -97.3705536, 20.9405556 ] } },
{ "type": "Feature", "properties": { "scalerank": 8, "featurecla": "Port", "name": "Kemaman", "website": "www.portsworld.com/Ports/kemamanport.htm", "natlscale": 5.0, "ne_id": 1730087611 }, "geometry": { "type": "Point", "coordinates": [ 103.4591873, 4.2494444 ] } },
{ "type": "Feature", "properties": { "scalerank": 8, "featurecla": "Port", "name": "Den Helder", "website": "www.havendenhelder.nl", "natlscale": 5.0, "ne_id": 1730087615 }, "geometry": { "type": "Point", "coordinates": [ 4.7836867, 52.9580556 ] } },
{ "type": "Feature", "properties": { "scalerank": 8, "featurecla": "Port", "name": "Dordrecht", "website": null, "natlscale": 5.0, "ne_id": 1730087617 }, "geometry": { "type": "Point", "coordinates": [ 4.6514134, 51.8058333 ] } },
{ "type": "Feature", "properties": { "scalerank": 8, "featurecla": "Port", "name": "Delfzijl", "website": "www.groningen-seaports.com", "natlscale": 5.0, "ne_id": 1730087619 }, "geometry": { "type": "Point", "coordinates": [ 6.955477, 53.3205556 ] } },
{ "type": "Feature", "properties": { "scalerank": 8, "featurecla": "Port", "name": "Arendal", "website": null, "natlscale": 5.0, "ne_id": 1730087621 }, "geometry": { "type": "Point", "coordinates": [ 8.7574205, 58.4541667 ] } },
{ "type": "Feature", "properties": { "scalerank": 8, "featurecla": "Port", "name": "Drammen", "website": "www.drammenhavn.no", "natlscale": 5.0, "ne_id": 1730087623 }, "geometry": { "type": "Point", "coordinates": [ 10.2249706, 59.7366667 ] } },
{ "type": "Feature", "properties": { "scalerank": 8, "featurecla": "Port", "name": "Halden", "website": null, "natlscale": 5.0, "ne_id": 1730087625 }, "geometry": { "type": "Point", "coordinates": [ 11.3753239, 59.1180556 ] } },
{ "type": "Feature", "properties": { "scalerank": 8, "featurecla": "Port", "name": "Harstad", "website": null, "natlscale": 5.0, "ne_id": 1730087627 }, "geometry": { "type": "Point", "coordinates": [ 16.5416372, 68.7891667 ] } },
{ "type": "Feature", "properties": { "scalerank": 8, "featurecla": "Port", "name": "Larvik", "website": "www.larvikhavn.vf.no", "natlscale": 5.0, "ne_id": 1730087629 }, "geometry": { "type": "Point", "coordinates": [ 10.0255006, 59.0452778 ] } },
{ "type": "Feature", "properties": { "scalerank": 8, "featurecla": "Port", "name": "Moss", "website": "www.moss-havn.no", "natlscale": 5.0, "ne_id": 1730087633 }, "geometry": { "type": "Point", "coordinates": [ 10.6528269, 59.4322222 ] } },
{ "type": "Feature", "properties": { "scalerank": 8, "featurecla": "Port", "name": "Sandefjord", "website": null, "natlscale": 5.0, "ne_id": 1730087635 }, "geometry": { "type": "Point", "coordinates": [ 10.2249706, 59.1236111 ] } },
{ "type": "Feature", "properties": { "scalerank": 8, "featurecla": "Port", "name": "Tonsberg", "website": null, "natlscale": 5.0, "ne_id": 1730087637 }, "geometry": { "type": "Point", "coordinates": [ 10.404947, 59.265 ] } },
{ "type": "Feature", "properties": { "scalerank": 8, "featurecla": "Port", "name": "Lyttelton", "website": "www.lpc.co.nz", "natlscale": 5.0, "ne_id": 1730087639 }, "geometry": { "type": "Point", "coordinates": [ 172.7102473, -43.6061111 ] } },
{ "type": "Feature", "properties": { "scalerank": 8, "featurecla": "Port", "name": "Qalhat", "website": null, "natlscale": 5.0, "ne_id": 1730087641 }, "geometry": { "type": "Point", "coordinates": [ 59.4205536, 22.6566667 ] } },
{ "type": "Feature", "properties": { "scalerank": 8, "featurecla": "Port", "name": "Sohar", "website": "portofsohar.com", "natlscale": 5.0, "ne_id": 1730087643 }, "geometry": { "type": "Point", "coordinates": [ 56.737927, 24.3783333 ] } },
{ "type": "Feature", "properties": { "scalerank": 8, "featurecla": "Port", "name": "Balboa", "website": "www.ppc.com.pa", "natlscale": 5.0, "ne_id": 1730087645 }, "geometry": { "type": "Point", "coordinates": [ -79.5687868, 8.9555556 ] } },
{ "type": "Feature", "properties": { "scalerank": 8, "featurecla": "Port", "name": "Cristobal", "website": "www.ppc.com.pa", "natlscale": 5.0, "ne_id": 1730087647 }, "geometry": { "type": "Point", "coordinates": [ -79.9047703, 9.3502778 ] } },
{ "type": "Feature", "properties": { "scalerank": 8, "featurecla": "Port", "name": "Pedregal", "website": "www.cocatram.org.ni/puertosca/pto_pedregal_panama.html", "natlscale": 5.0, "ne_id": 1730087651 }, "geometry": { "type": "Point", "coordinates": [ -82.4345701, 8.365 ] } },
{ "type": "Feature", "properties": { "scalerank": 8, "featurecla": "Port", "name": "Callao", "website": "www.enapu.com.pe", "natlscale": 5.0, "ne_id": 1730087653 }, "geometry": { "type": "Point", "coordinates": [ -77.1418139, -12.0452778 ] } },
{ "type": "Feature", "properties": { "scalerank": 8, "featurecla": "Port", "name": "Matarani", "website": "www.ultramarnetwork.com/TextosPeru/Marc-024.html", "natlscale": 5.0, "ne_id": 1730087655 }, "geometry": { "type": "Point", "coordinates": [ -72.1042403, -16.9977778 ] } },
{ "type": "Feature", "properties": { "scalerank": 8, "featurecla": "Port", "name": "Swinoujscie", "website": "www.phs.com.pl", "natlscale": 5.0, "ne_id": 1730087657 }, "geometry": { "type": "Point", "coordinates": [ 14.2686101, 53.905 ] } },
{ "type": "Feature", "properties": { "scalerank": 8, "featurecla": "Port", "name": "Leixoes", "website": "www.apdl.pt", "natlscale": 5.0, "ne_id": 1730087659 }, "geometry": { "type": "Point", "coordinates": [ -8.692874, 41.185 ] } },
{ "type": "Feature", "properties": { "scalerank": 8, "featurecla": "Port", "name": "Setubal", "website": "www.portodesetubal.pt", "natlscale": 5.0, "ne_id": 1730087661 }, "geometry": { "type": "Point", "coordinates": [ -8.821437, 38.4897222 ] } },
{ "type": "Feature", "properties": { "scalerank": 8, "featurecla": "Port", "name": "Aveiro", "website": "www.portodeaveiro.pt", "natlscale": 5.0, "ne_id": 1730087663 }, "geometry": { "type": "Point", "coordinates": [ -8.7196702, 40.6436111 ] } },
{ "type": "Feature", "properties": { "scalerank": 8, "featurecla": "Port", "name": "Viana do Castelo", "website": "www.ipnorte.pt", "natlscale": 5.0, "ne_id": 1730087665 }, "geometry": { "type": "Point", "coordinates": [ -8.8230271, 41.6863889 ] } },
{ "type": "Feature", "properties": { "scalerank": 8, "featurecla": "Port", "name": "Galati", "website": "apdm.galati.ro", "natlscale": 5.0, "ne_id": 1730087669 }, "geometry": { "type": "Point", "coordinates": [ 28.0838634, 45.4416667 ] } },
{ "type": "Feature", "properties": { "scalerank": 8, "featurecla": "Port", "name": "Nakhodka", "website": "www.port-livadia.ru", "natlscale": 5.0, "ne_id": 1730087671 }, "geometry": { "type": "Point", "coordinates": [ 132.9075972, 42.8047222 ] } },
{ "type": "Feature", "properties": { "scalerank": 8, "featurecla": "Port", "name": "Kandalaksha", "website": null, "natlscale": 5.0, "ne_id": 1730087673 }, "geometry": { "type": "Point", "coordinates": [ 32.404947, 67.135 ] } },
{ "type": "Feature", "properties": { "scalerank": 8, "featurecla": "Port", "name": "Kholmsk", "website": null, "natlscale": 5.0, "ne_id": 1730087675 }, "geometry": { "type": "Point", "coordinates": [ 142.0400471, 47.0505556 ] } },
{ "type": "Feature", "properties": { "scalerank": 8, "featurecla": "Port", "name": "Korsakov", "website": null, "natlscale": 5.0, "ne_id": 1730087677 }, "geometry": { "type": "Point", "coordinates": [ 142.7584806, 46.6266667 ] } },
{ "type": "Feature", "properties": { "scalerank": 8, "featurecla": "Port", "name": "Kronshtadt", "website": null, "natlscale": 5.0, "ne_id": 1730087679 }, "geometry": { "type": "Point", "coordinates": [ 29.7673734, 59.9869444 ] } },
{ "type": "Feature", "properties": { "scalerank": 8, "featurecla": "Port", "name": "Nakhodka", "website": "www.ncsp.ru", "natlscale": 5.0, "ne_id": 1730087681 }, "geometry": { "type": "Point", "coordinates": [ 132.8861602, 42.8 ] } },
{ "type": "Feature", "properties": { "scalerank": 8, "featurecla": "Port", "name": "Novorossiysk", "website": "www.nle.ru", "natlscale": 5.0, "ne_id": 1730087683 }, "geometry": { "type": "Point", "coordinates": [ 37.804417, 44.715 ] } },
{ "type": "Feature", "properties": { "scalerank": 8, "featurecla": "Port", "name": "Tuapse", "website": "www.tuapseport.ru", "natlscale": 5.0, "ne_id": 1730087687 }, "geometry": { "type": "Point", "coordinates": [ 39.0666667, 44.0919444 ] } },
{ "type": "Feature", "properties": { "scalerank": 8, "featurecla": "Port", "name": "Jubail", "website": "www.ports.gov.sa", "natlscale": 5.0, "ne_id": 1730087689 }, "geometry": { "type": "Point", "coordinates": [ 49.670907, 27.0286111 ] } },
{ "type": "Feature", "properties": { "scalerank": 8, "featurecla": "Port", "name": "Jubail", "website": "www.ports.gov.sa", "natlscale": 5.0, "ne_id": 1730087691 }, "geometry": { "type": "Point", "coordinates": [ 49.6730271, 27.0877778 ] } },
{ "type": "Feature", "properties": { "scalerank": 8, "featurecla": "Port", "name": "Ras al Khafji", "website": null, "natlscale": 5.0, "ne_id": 1730087693 }, "geometry": { "type": "Point", "coordinates": [ 48.5224971, 28.415 ] } },
{ "type": "Feature", "properties": { "scalerank": 8, "featurecla": "Port", "name": "Falkenberg", "website": "www.falkenbergs-terminal.se", "natlscale": 5.0, "ne_id": 1730087695 }, "geometry": { "type": "Point", "coordinates": [ 12.476384, 56.8894444 ] } },
{ "type": "Feature", "properties": { "scalerank": 8, "featurecla": "Port", "name": "Ahus", "website": "www.ahushamn.se", "natlscale": 5.0, "ne_id": 1730087697 }, "geometry": { "type": "Point", "coordinates": [ 14.305477, 55.9255556 ] } },
{ "type": "Feature", "properties": { "scalerank": 8, "featurecla": "Port", "name": "Harnosand", "website": "www.harnosand.se", "natlscale": 5.0, "ne_id": 1730087699 }, "geometry": { "type": "Point", "coordinates": [ 17.9388104, 62.6408333 ] } },
{ "type": "Feature", "properties": { "scalerank": 8, "featurecla": "Port", "name": "Hoganas", "website": null, "natlscale": 5.0, "ne_id": 1730087701 }, "geometry": { "type": "Point", "coordinates": [ 12.5414605, 56.1986111 ] } },
{ "type": "Feature", "properties": { "scalerank": 8, "featurecla": "Port", "name": "Karlshamn", "website": "www.karlshamnshamn.se", "natlscale": 5.0, "ne_id": 1730087705 }, "geometry": { "type": "Point", "coordinates": [ 14.8583039, 56.1625 ] } },
{ "type": "Feature", "properties": { "scalerank": 8, "featurecla": "Port", "name": "Karlskrona", "website": "www.karlskrona.se/hamn", "natlscale": 5.0, "ne_id": 1730087707 }, "geometry": { "type": "Point", "coordinates": [ 15.5859835, 56.16 ] } },
{ "type": "Feature", "properties": { "scalerank": 8, "featurecla": "Port", "name": "Nynashamn", "website": "www.stoports.com", "natlscale": 5.0, "ne_id": 1730087709 }, "geometry": { "type": "Point", "coordinates": [ 17.9581272, 58.9133333 ] } },
{ "type": "Feature", "properties": { "scalerank": 8, "featurecla": "Port", "name": "Oskarshamn", "website": "www.port.oskarshamn.se", "natlscale": 5.0, "ne_id": 1730087711 }, "geometry": { "type": "Point", "coordinates": [ 16.4707303, 57.265 ] } },
{ "type": "Feature", "properties": { "scalerank": 8, "featurecla": "Port", "name": "Oxelosund", "website": "www.oxhamn.se", "natlscale": 5.0, "ne_id": 1730087713 }, "geometry": { "type": "Point", "coordinates": [ 17.1079505, 58.6616667 ] } },
{ "type": "Feature", "properties": { "scalerank": 8, "featurecla": "Port", "name": "Pitea", "website": "www.bottenvikens-stuveri.se", "natlscale": 5.0, "ne_id": 1730087715 }, "geometry": { "type": "Point", "coordinates": [ 21.4703769, 65.3088889 ] } },
{ "type": "Feature", "properties": { "scalerank": 8, "featurecla": "Port", "name": "Sodertalje", "website": "www.soeport.se", "natlscale": 5.0, "ne_id": 1730087717 }, "geometry": { "type": "Point", "coordinates": [ 17.6591873, 59.1697222 ] } },
{ "type": "Feature", "properties": { "scalerank": 8, "featurecla": "Port", "name": "Trelleborg", "website": "www.trelleborgshamn.se", "natlscale": 5.0, "ne_id": 1730087719 }, "geometry": { "type": "Point", "coordinates": [ 13.1515901, 55.3680556 ] } },
{ "type": "Feature", "properties": { "scalerank": 8, "featurecla": "Port", "name": "Uddevalla", "website": "www.uddevalla-hamn.se", "natlscale": 5.0, "ne_id": 1730087723 }, "geometry": { "type": "Point", "coordinates": [ 11.9047703, 58.3480556 ] } },
{ "type": "Feature", "properties": { "scalerank": 8, "featurecla": "Port", "name": "Ystad", "website": "www.ystad.se", "natlscale": 5.0, "ne_id": 1730087725 }, "geometry": { "type": "Point", "coordinates": [ 13.8207303, 55.4213889 ] } },
{ "type": "Feature", "properties": { "scalerank": 8, "featurecla": "Port", "name": "Bangkok", "website": "www.bkp.port.co.th", "natlscale": 5.0, "ne_id": 1730087727 }, "geometry": { "type": "Point", "coordinates": [ 100.5849234, 13.6958333 ] } },
{ "type": "Feature", "properties": { "scalerank": 8, "featurecla": "Port", "name": "Laem Chabang", "website": "www.port.co.th", "natlscale": 5.0, "ne_id": 1730087729 }, "geometry": { "type": "Point", "coordinates": [ 100.8909305, 13.0738889 ] } },
{ "type": "Feature", "properties": { "scalerank": 8, "featurecla": "Port", "name": "Sriracha", "website": "www.srirachaport.com", "natlscale": 5.0, "ne_id": 1730087731 }, "geometry": { "type": "Point", "coordinates": [ 100.9186101, 13.1713889 ] } },
{ "type": "Feature", "properties": { "scalerank": 8, "featurecla": "Port", "name": "Point Lisas", "website": "www.plipdeco.com", "natlscale": 5.0, "ne_id": 1730087733 }, "geometry": { "type": "Point", "coordinates": [ -61.4895171, 10.3883333 ] } },
{ "type": "Feature", "properties": { "scalerank": 8, "featurecla": "Port", "name": "Mersin", "website": "www.tcdd.gov.tr", "natlscale": 5.0, "ne_id": 1730087735 }, "geometry": { "type": "Point", "coordinates": [ 34.6405771, 36.7969444 ] } },
{ "type": "Feature", "properties": { "scalerank": 8, "featurecla": "Port", "name": "Berdyansk", "website": "www.ukrport.org.ua", "natlscale": 5.0, "ne_id": 1730087737 }, "geometry": { "type": "Point", "coordinates": [ 36.7732038, 46.7513889 ] } },
{ "type": "Feature", "properties": { "scalerank": 8, "featurecla": "Port", "name": "Kerch", "website": "www.ukrport.org.ua", "natlscale": 5.0, "ne_id": 1730087741 }, "geometry": { "type": "Point", "coordinates": [ 36.4856301, 45.355 ] } },
{ "type": "Feature", "properties": { "scalerank": 8, "featurecla": "Port", "name": "Richmond", "website": "www.ci.richmond.ca.us/index.asp?NID=102", "natlscale": 5.0, "ne_id": 1730087743 }, "geometry": { "type": "Point", "coordinates": [ -122.3590106, 37.9138889 ] } },
{ "type": "Feature", "properties": { "scalerank": 8, "featurecla": "Port", "name": "Wilmington", "website": "www.portofwilmingtonde.com", "natlscale": 5.0, "ne_id": 1730087745 }, "geometry": { "type": "Point", "coordinates": [ -75.5198469, 39.7166667 ] } },
{ "type": "Feature", "properties": { "scalerank": 8, "featurecla": "Port", "name": "Quincy", "website": "www.forerivershipyard.com", "natlscale": 5.0, "ne_id": 1730087747 }, "geometry": { "type": "Point", "coordinates": [ -70.9689635, 42.2413889 ] } },
{ "type": "Feature", "properties": { "scalerank": 8, "featurecla": "Port", "name": "Nawiliwili", "website": "www.state.hi.us/dot/harbors", "natlscale": 5.0, "ne_id": 1730087749 }, "geometry": { "type": "Point", "coordinates": [ -159.3530035, 21.9538889 ] } },
{ "type": "Feature", "properties": { "scalerank": 8, "featurecla": "Port", "name": "Monterey", "website": "www.monterey.org/harbor", "natlscale": 5.0, "ne_id": 1730087751 }, "geometry": { "type": "Point", "coordinates": [ -121.888987, 36.6055556 ] } },
{ "type": "Feature", "properties": { "scalerank": 8, "featurecla": "Port", "name": "Wilmington", "website": "www.ncports.com", "natlscale": 5.0, "ne_id": 1730087753 }, "geometry": { "type": "Point", "coordinates": [ -77.9526502, 34.1919444 ] } },
{ "type": "Feature", "properties": { "scalerank": 8, "featurecla": "Port", "name": "Gloucester City", "website": "www.holtoversight.com", "natlscale": 5.0, "ne_id": 1730087755 }, "geometry": { "type": "Point", "coordinates": [ -75.1226737, 39.9036111 ] } },
{ "type": "Feature", "properties": { "scalerank": 8, "featurecla": "Port", "name": "Bayonne", "website": "www.bayonnenj.org", "natlscale": 5.0, "ne_id": 1730087759 }, "geometry": { "type": "Point", "coordinates": [ -74.1024735, 40.6625 ] } },
{ "type": "Feature", "properties": { "scalerank": 8, "featurecla": "Port", "name": "Baltimore", "website": "www.mpa.state.md.us", "natlscale": 5.0, "ne_id": 1730087761 }, "geometry": { "type": "Point", "coordinates": [ -76.5556537, 39.2325 ] } },
{ "type": "Feature", "properties": { "scalerank": 8, "featurecla": "Port", "name": "Jacksonville", "website": "www.jaxport.com", "natlscale": 5.0, "ne_id": 1730087763 }, "geometry": { "type": "Point", "coordinates": [ -81.5591873, 30.3808333 ] } },
{ "type": "Feature", "properties": { "scalerank": 8, "featurecla": "Port", "name": "Newport News", "website": "www.vaports.com", "natlscale": 5.0, "ne_id": 1730087765 }, "geometry": { "type": "Point", "coordinates": [ -76.4262073, 36.9805556 ] } },
{ "type": "Feature", "properties": { "scalerank": 8, "featurecla": "Port", "name": "Port Arthur", "website": "www.portofportarthur.com", "natlscale": 5.0, "ne_id": 1730087767 }, "geometry": { "type": "Point", "coordinates": [ -93.9570671, 29.8430556 ] } },
{ "type": "Feature", "properties": { "scalerank": 8, "featurecla": "Port", "name": "Portsmouth", "website": "www.vaports.com", "natlscale": 5.0, "ne_id": 1730087769 }, "geometry": { "type": "Point", "coordinates": [ -76.2882803, 36.8166667 ] } },
{ "type": "Feature", "properties": { "scalerank": 8, "featurecla": "Port", "name": "Wilmington", "website": "www.ncports.com", "natlscale": 5.0, "ne_id": 1730087771 }, "geometry": { "type": "Point", "coordinates": [ -77.9526502, 34.1919444 ] } },
{ "type": "Feature", "properties": { "scalerank": 8, "featurecla": "Port", "name": "Port Arthur", "website": "www.portofportarthur.com", "natlscale": 5.0, "ne_id": 1730087773 }, "geometry": { "type": "Point", "coordinates": [ -93.9570671, 29.8430556 ] } },
{ "type": "Feature", "properties": { "scalerank": 8, "featurecla": "Port", "name": "Alexandria", "website": null, "natlscale": 5.0, "ne_id": 1730087777 }, "geometry": { "type": "Point", "coordinates": [ -77.0372203, 38.8011111 ] } },
{ "type": "Feature", "properties": { "scalerank": 8, "featurecla": "Port", "name": "Newport News", "website": "www.vaports.com", "natlscale": 5.0, "ne_id": 1730087779 }, "geometry": { "type": "Point", "coordinates": [ -76.4262073, 36.9805556 ] } },
{ "type": "Feature", "properties": { "scalerank": 8, "featurecla": "Port", "name": "Brownsville", "website": "www.portofbrownsville.org", "natlscale": 5.0, "ne_id": 1730087781 }, "geometry": { "type": "Point", "coordinates": [ -122.6086572, 47.6513889 ] } },
{ "type": "Feature", "properties": { "scalerank": 8, "featurecla": "Port", "name": "Vancouver", "website": "www.portvanusa.com", "natlscale": 5.0, "ne_id": 1730087783 }, "geometry": { "type": "Point", "coordinates": [ -122.7038869, 45.6347222 ] } },
{ "type": "Feature", "properties": { "scalerank": 8, "featurecla": "Port", "name": "Guanta", "website": "www.puertodeguanta.gob.ve", "natlscale": 5.0, "ne_id": 1730087785 }, "geometry": { "type": "Point", "coordinates": [ -64.5904005, 10.2491667 ] } },
{ "type": "Feature", "properties": { "scalerank": 8, "featurecla": "Port", "name": "Keelung", "website": null, "natlscale": 5.0, "ne_id": 1730087787 }, "geometry": { "type": "Point", "coordinates": [ 121.725837, 25.2207601 ] } },
{ "type": "Feature", "properties": { "scalerank": 8, "featurecla": "Port", "name": "Arrecife", "website": null, "natlscale": 5.0, "ne_id": 1730087789 }, "geometry": { "type": "Point", "coordinates": [ -13.6239544, 28.9489648 ] } },
{ "type": "Feature", "properties": { "scalerank": 8, "featurecla": "Port", "name": "St Thomas", "website": null, "natlscale": 5.0, "ne_id": 1730087791 }, "geometry": { "type": "Point", "coordinates": [ -64.9284153, 18.3321232 ] } },
{ "type": "Feature", "properties": { "scalerank": 8, "featurecla": "Port", "name": "Basseterre", "website": null, "natlscale": 5.0, "ne_id": 1730087795 }, "geometry": { "type": "Point", "coordinates": [ -62.7500025, 17.278827 ] } },
{ "type": "Feature", "properties": { "scalerank": 8, "featurecla": "Port", "name": "New Orleans", "website": null, "natlscale": 5.0, "ne_id": 1730087797 }, "geometry": { "type": "Point", "coordinates": [ -90.0563712, 29.9342 ] } },
{ "type": "Feature", "properties": { "scalerank": 8, "featurecla": "Port", "name": "Freeport", "website": null, "natlscale": 5.0, "ne_id": 1730087799 }, "geometry": { "type": "Point", "coordinates": [ -78.7276636, 26.5384106 ] } },
{ "type": "Feature", "properties": { "scalerank": 8, "featurecla": "Port", "name": "Trenton", "website": null, "natlscale": 5.0, "ne_id": 1730087801 }, "geometry": { "type": "Point", "coordinates": [ -77.56, 44.1 ] } },
{ "type": "Feature", "properties": { "scalerank": 8, "featurecla": "Port", "name": "Goderich", "website": null, "natlscale": 5.0, "ne_id": 1730087803 }, "geometry": { "type": "Point", "coordinates": [ -81.73, 43.75 ] } },
{ "type": "Feature", "properties": { "scalerank": 8, "featurecla": "Port", "name": "Midland", "website": null, "natlscale": 5.0, "ne_id": 1730087805 }, "geometry": { "type": "Point", "coordinates": [ -79.91, 44.75 ] } },
{ "type": "Feature", "properties": { "scalerank": 8, "featurecla": "Port", "name": "St Joseph", "website": null, "natlscale": 5.0, "ne_id": 1730087807 }, "geometry": { "type": "Point", "coordinates": [ -86.48, 42.11 ] } },
{ "type": "Feature", "properties": { "scalerank": 8, "featurecla": "Port", "name": "Racine", "website": null, "natlscale": 5.0, "ne_id": 1730087809 }, "geometry": { "type": "Point", "coordinates": [ -87.78, 42.73 ] } },
{ "type": "Feature", "properties": { "scalerank": 8, "featurecla": "Port", "name": "Menominee", "website": null, "natlscale": 5.0, "ne_id": 1730087813 }, "geometry": { "type": "Point", "coordinates": [ -87.6, 45.1 ] } },
{ "type": "Feature", "properties": { "scalerank": 8, "featurecla": "Port", "name": "Escanaba", "website": null, "natlscale": 5.0, "ne_id": 1730087815 }, "geometry": { "type": "Point", "coordinates": [ -87.05, 45.76 ] } },
{ "type": "Feature", "properties": { "scalerank": 8, "featurecla": "Port", "name": "Sacramento", "website": null, "natlscale": 5.0, "ne_id": 1730087817 }, "geometry": { "type": "Point", "coordinates": [ -121.5, 38.58 ] } },
{ "type": "Feature", "properties": { "scalerank": 8, "featurecla": "Port", "name": "Great Yarmouth", "website": null, "natlscale": 5.0, "ne_id": 1730087819 }, "geometry": { "type": "Point", "coordinates": [ 1.73, 52.61 ] } },
{ "type": "Feature", "properties": { "scalerank": 8, "featurecla": "Port", "name": "Dundee", "website": null, "natlscale": 5.0, "ne_id": 1730087821 }, "geometry": { "type": "Point", "coordinates": [ -2.96, 56.46 ] } },
{ "type": "Feature", "properties": { "scalerank": 8, "featurecla": "Port", "name": "Portmahomack Harbor", "website": null, "natlscale": 5.0, "ne_id": 1730087823 }, "geometry": { "type": "Point", "coordinates": [ -3.83, 57.83 ] } },
{ "type": "Feature", "properties": { "scalerank": 8, "featurecla": "Port", "name": "Wick", "website": null, "natlscale": 5.0, "ne_id": 1730087825 }, "geometry": { "type": "Point", "coordinates": [ -3.08, 58.43 ] } },
{ "type": "Feature", "properties": { "scalerank": 8, "featurecla": "Port", "name": "Oban", "website": null, "natlscale": 5.0, "ne_id": 1730087827 }, "geometry": { "type": "Point", "coordinates": [ -5.46, 56.41 ] } },
{ "type": "Feature", "properties": { "scalerank": 8, "featurecla": "Port", "name": "Douglas", "website": null, "natlscale": 5.0, "ne_id": 1730087831 }, "geometry": { "type": "Point", "coordinates": [ -4.46, 54.15 ] } },
{ "type": "Feature", "properties": { "scalerank": 8, "featurecla": "Port", "name": "Londonderry", "website": null, "natlscale": 5.0, "ne_id": 1730087833 }, "geometry": { "type": "Point", "coordinates": [ -7.31, 55.0 ] } },
{ "type": "Feature", "properties": { "scalerank": 8, "featurecla": "Port", "name": "Silloth", "website": null, "natlscale": 5.0, "ne_id": 1730087835 }, "geometry": { "type": "Point", "coordinates": [ -3.4, 54.86 ] } },
{ "type": "Feature", "properties": { "scalerank": 7, "featurecla": "Port", "name": "Ambriz", "website": null, "natlscale": 10.0, "ne_id": 1730087837 }, "geometry": { "type": "Point", "coordinates": [ 13.0937574, -7.8330556 ] } },
{ "type": "Feature", "properties": { "scalerank": 7, "featurecla": "Port", "name": "Cabinda", "website": null, "natlscale": 10.0, "ne_id": 1730087839 }, "geometry": { "type": "Point", "coordinates": [ 12.1902238, -5.55 ] } },
{ "type": "Feature", "properties": { "scalerank": 7, "featurecla": "Port", "name": "Soyo", "website": "www.otal.com/angola", "natlscale": 10.0, "ne_id": 1730087841 }, "geometry": { "type": "Point", "coordinates": [ 12.3203769, -6.1213889 ] } },
{ "type": "Feature", "properties": { "scalerank": 7, "featurecla": "Port", "name": "Durres", "website": null, "natlscale": 10.0, "ne_id": 1730087843 }, "geometry": { "type": "Point", "coordinates": [ 19.4530035, 41.3077778 ] } },
{ "type": "Feature", "properties": { "scalerank": 7, "featurecla": "Port", "name": "Curacao", "website": "www.curports.com", "natlscale": 10.0, "ne_id": 1730087845 }, "geometry": { "type": "Point", "coordinates": [ -68.9182568, 12.1191667 ] } },
{ "type": "Feature", "properties": { "scalerank": 7, "featurecla": "Port", "name": "Al Fujayrah", "website": "www.fujairahport.ae", "natlscale": 10.0, "ne_id": 1730087849 }, "geometry": { "type": "Point", "coordinates": [ 56.3565371, 25.1783333 ] } },
{ "type": "Feature", "properties": { "scalerank": 7, "featurecla": "Port", "name": "Caleta Olivia", "website": null, "natlscale": 10.0, "ne_id": 1730087851 }, "geometry": { "type": "Point", "coordinates": [ -67.5084806, -46.4330556 ] } },
{ "type": "Feature", "properties": { "scalerank": 7, "featurecla": "Port", "name": "Puerto Deseado", "website": "www.scruz.gov.ar/puertos", "natlscale": 10.0, "ne_id": 1730087853 }, "geometry": { "type": "Point", "coordinates": [ -65.9040636, -47.7555556 ] } },
{ "type": "Feature", "properties": { "scalerank": 7, "featurecla": "Port", "name": "Rio Gallegos", "website": "www.scruz.gov.ar/puertos", "natlscale": 10.0, "ne_id": 1730087855 }, "geometry": { "type": "Point", "coordinates": [ -69.2182568, -51.6116667 ] } },
{ "type": "Feature", "properties": { "scalerank": 7, "featurecla": "Port", "name": "Rio Grande", "website": null, "natlscale": 10.0, "ne_id": 1730087857 }, "geometry": { "type": "Point", "coordinates": [ -67.7024735, -53.7944444 ] } },
{ "type": "Feature", "properties": { "scalerank": 7, "featurecla": "Port", "name": "San Julian", "website": "www.scruz.gov.ar/puertos", "natlscale": 10.0, "ne_id": 1730087859 }, "geometry": { "type": "Point", "coordinates": [ -67.7189635, -49.2997222 ] } },
{ "type": "Feature", "properties": { "scalerank": 7, "featurecla": "Port", "name": "Coffs Harbour", "website": null, "natlscale": 10.0, "ne_id": 1730087861 }, "geometry": { "type": "Point", "coordinates": [ 153.1414605, -30.3075 ] } },
{ "type": "Feature", "properties": { "scalerank": 7, "featurecla": "Port", "name": "Esperance", "website": "www.esperanceport.com.au", "natlscale": 10.0, "ne_id": 1730087863 }, "geometry": { "type": "Point", "coordinates": [ 121.893404, -33.8719444 ] } },
{ "type": "Feature", "properties": { "scalerank": 7, "featurecla": "Port", "name": "Port Augusta", "website": null, "natlscale": 10.0, "ne_id": 1730087867 }, "geometry": { "type": "Point", "coordinates": [ 137.7567138, -32.4886111 ] } },
{ "type": "Feature", "properties": { "scalerank": 7, "featurecla": "Port", "name": "Bowen", "website": null, "natlscale": 10.0, "ne_id": 1730087869 }, "geometry": { "type": "Point", "coordinates": [ 148.25053, -20.0208333 ] } },
{ "type": "Feature", "properties": { "scalerank": 7, "featurecla": "Port", "name": "Bundaberg", "website": "www.portofbundaberg.com.au", "natlscale": 10.0, "ne_id": 1730087871 }, "geometry": { "type": "Point", "coordinates": [ 152.388457, -24.7672222 ] } },
{ "type": "Feature", "properties": { "scalerank": 7, "featurecla": "Port", "name": "Burketown", "website": "www.cairnsports.com.au", "natlscale": 10.0, "ne_id": 1730087873 }, "geometry": { "type": "Point", "coordinates": [ 139.737927, -17.5536111 ] } },
{ "type": "Feature", "properties": { "scalerank": 7, "featurecla": "Port", "name": "Carnarvon", "website": null, "natlscale": 10.0, "ne_id": 1730087875 }, "geometry": { "type": "Point", "coordinates": [ 113.642874, -24.895 ] } },
{ "type": "Feature", "properties": { "scalerank": 7, "featurecla": "Port", "name": "Cooktown", "website": "www.cairnsports.com.au", "natlscale": 10.0, "ne_id": 1730087877 }, "geometry": { "type": "Point", "coordinates": [ 145.2437574, -15.4597222 ] } },
{ "type": "Feature", "properties": { "scalerank": 7, "featurecla": "Port", "name": "Derby", "website": null, "natlscale": 10.0, "ne_id": 1730087879 }, "geometry": { "type": "Point", "coordinates": [ 123.6051237, -17.2922222 ] } },
{ "type": "Feature", "properties": { "scalerank": 7, "featurecla": "Port", "name": "Eden", "website": "www.eden.nsw.gov.au", "natlscale": 10.0, "ne_id": 1730087881 }, "geometry": { "type": "Point", "coordinates": [ 149.9053004, -37.0719444 ] } },
{ "type": "Feature", "properties": { "scalerank": 7, "featurecla": "Port", "name": "George Town", "website": null, "natlscale": 10.0, "ne_id": 1730087885 }, "geometry": { "type": "Point", "coordinates": [ 146.8202002, -41.1097222 ] } },
{ "type": "Feature", "properties": { "scalerank": 7, "featurecla": "Port", "name": "Geraldton", "website": "www.gpa.wa.gov.au", "natlscale": 10.0, "ne_id": 1730087887 }, "geometry": { "type": "Point", "coordinates": [ 114.6007067, -28.7727778 ] } },
{ "type": "Feature", "properties": { "scalerank": 7, "featurecla": "Port", "name": "Karumba", "website": "www.cairnsports.com.au", "natlscale": 10.0, "ne_id": 1730087889 }, "geometry": { "type": "Point", "coordinates": [ 140.8333333, -17.4894444 ] } },
{ "type": "Feature", "properties": { "scalerank": 7, "featurecla": "Port", "name": "Kingscote", "website": null, "natlscale": 10.0, "ne_id": 1730087891 }, "geometry": { "type": "Point", "coordinates": [ 137.6395171, -35.655 ] } },
{ "type": "Feature", "properties": { "scalerank": 7, "featurecla": "Port", "name": "Maryborough", "website": "www.nqbp.com.au", "natlscale": 10.0, "ne_id": 1730087893 }, "geometry": { "type": "Point", "coordinates": [ 152.9060071, -25.295 ] } },
{ "type": "Feature", "properties": { "scalerank": 7, "featurecla": "Port", "name": "Strahan", "website": "www.tasports.com.au", "natlscale": 10.0, "ne_id": 1730087895 }, "geometry": { "type": "Point", "coordinates": [ 145.3205536, -42.1583333 ] } },
{ "type": "Feature", "properties": { "scalerank": 7, "featurecla": "Port", "name": "Mongla", "website": "www.monglaport.com.bd", "natlscale": 10.0, "ne_id": 1730087897 }, "geometry": { "type": "Point", "coordinates": [ 89.5859835, 22.4869444 ] } },
{ "type": "Feature", "properties": { "scalerank": 7, "featurecla": "Port", "name": "Aracaju", "website": "www.ibritto.com.br", "natlscale": 10.0, "ne_id": 1730087899 }, "geometry": { "type": "Point", "coordinates": [ -37.0395171, -10.9252778 ] } },
{ "type": "Feature", "properties": { "scalerank": 7, "featurecla": "Port", "name": "Fortaleza", "website": "www.docasdoceara.com.br", "natlscale": 10.0, "ne_id": 1730087903 }, "geometry": { "type": "Point", "coordinates": [ -38.521437, -3.7175 ] } },
{ "type": "Feature", "properties": { "scalerank": 7, "featurecla": "Port", "name": "Macapa", "website": null, "natlscale": 10.0, "ne_id": 1730087905 }, "geometry": { "type": "Point", "coordinates": [ -51.0426973, 0.0322222 ] } },
{ "type": "Feature", "properties": { "scalerank": 7, "featurecla": "Port", "name": "Navegantes", "website": "www.portonave.com.br", "natlscale": 10.0, "ne_id": 1730087907 }, "geometry": { "type": "Point", "coordinates": [ -48.6542403, -26.8988889 ] } },
{ "type": "Feature", "properties": { "scalerank": 7, "featurecla": "Port", "name": "Pelotas", "website": null, "natlscale": 10.0, "ne_id": 1730087909 }, "geometry": { "type": "Point", "coordinates": [ -52.3237338, -31.7819444 ] } },
{ "type": "Feature", "properties": { "scalerank": 7, "featurecla": "Port", "name": "Campbell River", "website": null, "natlscale": 10.0, "ne_id": 1730087911 }, "geometry": { "type": "Point", "coordinates": [ -125.2386337, 50.0319444 ] } },
{ "type": "Feature", "properties": { "scalerank": 7, "featurecla": "Port", "name": "Goose Bay", "website": null, "natlscale": 10.0, "ne_id": 1730087913 }, "geometry": { "type": "Point", "coordinates": [ -60.3423439, 53.3844444 ] } },
{ "type": "Feature", "properties": { "scalerank": 7, "featurecla": "Port", "name": "Masset", "website": null, "natlscale": 10.0, "ne_id": 1730087915 }, "geometry": { "type": "Point", "coordinates": [ -132.1411072, 54.0066667 ] } },
{ "type": "Feature", "properties": { "scalerank": 7, "featurecla": "Port", "name": "Matane", "website": null, "natlscale": 10.0, "ne_id": 1730087917 }, "geometry": { "type": "Point", "coordinates": [ -67.5712603, 48.8419444 ] } },
{ "type": "Feature", "properties": { "scalerank": 7, "featurecla": "Port", "name": "Nanisivik", "website": null, "natlscale": 10.0, "ne_id": 1730087921 }, "geometry": { "type": "Point", "coordinates": [ -84.5430506, 73.0686111 ] } },
{ "type": "Feature", "properties": { "scalerank": 7, "featurecla": "Port", "name": "New Richmond", "website": null, "natlscale": 10.0, "ne_id": 1730087923 }, "geometry": { "type": "Point", "coordinates": [ -65.8349234, 48.1386111 ] } },
{ "type": "Feature", "properties": { "scalerank": 7, "featurecla": "Port", "name": "Port Hardy", "website": null, "natlscale": 10.0, "ne_id": 1730087925 }, "geometry": { "type": "Point", "coordinates": [ -127.4836867, 50.7211111 ] } },
{ "type": "Feature", "properties": { "scalerank": 7, "featurecla": "Port", "name": "Port Hawkesbury", "website": "www.straitsuperport.com", "natlscale": 10.0, "ne_id": 1730087927 }, "geometry": { "type": "Point", "coordinates": [ -61.3556537, 45.61 ] } },
{ "type": "Feature", "properties": { "scalerank": 7, "featurecla": "Port", "name": "Squamish", "website": "www.sqterminals.com", "natlscale": 10.0, "ne_id": 1730087929 }, "geometry": { "type": "Point", "coordinates": [ -123.1666667, 49.6830556 ] } },
{ "type": "Feature", "properties": { "scalerank": 7, "featurecla": "Port", "name": "Stephenville", "website": "www.portharmonauthority.ca", "natlscale": 10.0, "ne_id": 1730087931 }, "geometry": { "type": "Point", "coordinates": [ -58.5407538, 48.5352778 ] } },
{ "type": "Feature", "properties": { "scalerank": 7, "featurecla": "Port", "name": "Stewart", "website": "www.stewart-hyder.com", "natlscale": 10.0, "ne_id": 1730087933 }, "geometry": { "type": "Point", "coordinates": [ -129.9895171, 55.9286111 ] } },
{ "type": "Feature", "properties": { "scalerank": 7, "featurecla": "Port", "name": "Tahsis", "website": null, "natlscale": 10.0, "ne_id": 1730087935 }, "geometry": { "type": "Point", "coordinates": [ -126.6540636, 49.9175 ] } },
{ "type": "Feature", "properties": { "scalerank": 7, "featurecla": "Port", "name": "Sandspit", "website": null, "natlscale": 10.0, "ne_id": 1730087939 }, "geometry": { "type": "Point", "coordinates": [ -131.8196702, 53.2552778 ] } },
{ "type": "Feature", "properties": { "scalerank": 7, "featurecla": "Port", "name": "Tuktoyaktuk", "website": null, "natlscale": 10.0, "ne_id": 1730087941 }, "geometry": { "type": "Point", "coordinates": [ -132.9858068, 69.4313889 ] } },
{ "type": "Feature", "properties": { "scalerank": 7, "featurecla": "Port", "name": "Ancud", "website": null, "natlscale": 10.0, "ne_id": 1730087943 }, "geometry": { "type": "Point", "coordinates": [ -73.8256773, -41.8686111 ] } },
{ "type": "Feature", "properties": { "scalerank": 7, "featurecla": "Port", "name": "Castro", "website": null, "natlscale": 10.0, "ne_id": 1730087945 }, "geometry": { "type": "Point", "coordinates": [ -73.7668434, -42.4827778 ] } },
{ "type": "Feature", "properties": { "scalerank": 7, "featurecla": "Port", "name": "Chanaral", "website": null, "natlscale": 10.0, "ne_id": 1730087947 }, "geometry": { "type": "Point", "coordinates": [ -70.6343934, -26.3505556 ] } },
{ "type": "Feature", "properties": { "scalerank": 7, "featurecla": "Port", "name": "Puerto Natales", "website": null, "natlscale": 10.0, "ne_id": 1730087949 }, "geometry": { "type": "Point", "coordinates": [ -72.509364, -51.7311111 ] } },
{ "type": "Feature", "properties": { "scalerank": 7, "featurecla": "Port", "name": "Taltal", "website": null, "natlscale": 10.0, "ne_id": 1730087951 }, "geometry": { "type": "Point", "coordinates": [ -70.4845701, -25.3972222 ] } },
{ "type": "Feature", "properties": { "scalerank": 7, "featurecla": "Port", "name": "Guangzhou", "website": null, "natlscale": 10.0, "ne_id": 1730087953 }, "geometry": { "type": "Point", "coordinates": [ 113.6710836, 22.6402778 ] } },
{ "type": "Feature", "properties": { "scalerank": 7, "featurecla": "Port", "name": "Jiangyin", "website": null, "natlscale": 10.0, "ne_id": 1730087957 }, "geometry": { "type": "Point", "coordinates": [ 120.2212603, 31.9319444 ] } },
{ "type": "Feature", "properties": { "scalerank": 7, "featurecla": "Port", "name": "Lianyungang", "website": "www.lygport.com.cn", "natlscale": 10.0, "ne_id": 1730087959 }, "geometry": { "type": "Point", "coordinates": [ 119.4084806, 34.7452778 ] } },
{ "type": "Feature", "properties": { "scalerank": 7, "featurecla": "Port", "name": "Sanya", "website": null, "natlscale": 10.0, "ne_id": 1730087961 }, "geometry": { "type": "Point", "coordinates": [ 109.50053, 18.2397222 ] } },
{ "type": "Feature", "properties": { "scalerank": 7, "featurecla": "Port", "name": "Zhanjiang", "website": "www.zjport.com", "natlscale": 10.0, "ne_id": 1730087963 }, "geometry": { "type": "Point", "coordinates": [ 110.4063604, 21.1697222 ] } },
{ "type": "Feature", "properties": { "scalerank": 7, "featurecla": "Port", "name": "Zhoushan", "website": "www.zsport.com.cn", "natlscale": 10.0, "ne_id": 1730087965 }, "geometry": { "type": "Point", "coordinates": [ 122.1026502, 30.0033333 ] } },
{ "type": "Feature", "properties": { "scalerank": 7, "featurecla": "Port", "name": "San-Pedro", "website": null, "natlscale": 10.0, "ne_id": 1730087967 }, "geometry": { "type": "Point", "coordinates": [ -6.61702, 4.7430556 ] } },
{ "type": "Feature", "properties": { "scalerank": 7, "featurecla": "Port", "name": "Cartagena", "website": "www.sprc.com.co", "natlscale": 10.0, "ne_id": 1730087969 }, "geometry": { "type": "Point", "coordinates": [ -75.5256773, 10.4033333 ] } },
{ "type": "Feature", "properties": { "scalerank": 7, "featurecla": "Port", "name": "Tolu", "website": "www.navescolombia.com", "natlscale": 10.0, "ne_id": 1730087971 }, "geometry": { "type": "Point", "coordinates": [ -75.5852768, 9.5202778 ] } },
{ "type": "Feature", "properties": { "scalerank": 7, "featurecla": "Port", "name": "Tumaco", "website": "www.navescolombia.com", "natlscale": 10.0, "ne_id": 1730087975 }, "geometry": { "type": "Point", "coordinates": [ -78.7595406, 1.8130556 ] } },
{ "type": "Feature", "properties": { "scalerank": 7, "featurecla": "Port", "name": "Turbo", "website": "www.navescolombia.com", "natlscale": 10.0, "ne_id": 1730087977 }, "geometry": { "type": "Point", "coordinates": [ -76.7338634, 8.0877778 ] } },
{ "type": "Feature", "properties": { "scalerank": 7, "featurecla": "Port", "name": "Baracoa", "website": null, "natlscale": 10.0, "ne_id": 1730087979 }, "geometry": { "type": "Point", "coordinates": [ -74.5022968, 20.3530556 ] } },
{ "type": "Feature", "properties": { "scalerank": 7, "featurecla": "Port", "name": "Nicaro", "website": null, "natlscale": 10.0, "ne_id": 1730087981 }, "geometry": { "type": "Point", "coordinates": [ -75.5508834, 20.7133333 ] } },
{ "type": "Feature", "properties": { "scalerank": 7, "featurecla": "Port", "name": "Nueva Gerona", "website": null, "natlscale": 10.0, "ne_id": 1730087983 }, "geometry": { "type": "Point", "coordinates": [ -82.7932273, 21.9033333 ] } },
{ "type": "Feature", "properties": { "scalerank": 7, "featurecla": "Port", "name": "Helgoland", "website": "www.helgoland.de", "natlscale": 10.0, "ne_id": 1730087985 }, "geometry": { "type": "Point", "coordinates": [ 7.8912839, 54.1775 ] } },
{ "type": "Feature", "properties": { "scalerank": 7, "featurecla": "Port", "name": "Travemunde", "website": null, "natlscale": 10.0, "ne_id": 1730087987 }, "geometry": { "type": "Point", "coordinates": [ 10.8682568, 53.9522222 ] } },
{ "type": "Feature", "properties": { "scalerank": 7, "featurecla": "Port", "name": "Thisted", "website": null, "natlscale": 10.0, "ne_id": 1730087989 }, "geometry": { "type": "Point", "coordinates": [ 8.6921673, 56.9527778 ] } },
{ "type": "Feature", "properties": { "scalerank": 7, "featurecla": "Port", "name": "Manta", "website": "www.apmanta.gov.ec", "natlscale": 10.0, "ne_id": 1730087993 }, "geometry": { "type": "Point", "coordinates": [ -80.7209069, -0.9355556 ] } },
{ "type": "Feature", "properties": { "scalerank": 7, "featurecla": "Port", "name": "Esmeraldas", "website": "www.puertoesmeraldas.gov.ec", "natlscale": 10.0, "ne_id": 1730087995 }, "geometry": { "type": "Point", "coordinates": [ -79.6426973, 0.9894444 ] } },
{ "type": "Feature", "properties": { "scalerank": 7, "featurecla": "Port", "name": "Corralejo", "website": null, "natlscale": 10.0, "ne_id": 1730087997 }, "geometry": { "type": "Point", "coordinates": [ -13.8588339, 28.7413889 ] } },
{ "type": "Feature", "properties": { "scalerank": 7, "featurecla": "Port", "name": "Ceuta", "website": "www.puertodeceuta.com", "natlscale": 10.0, "ne_id": 1730087999 }, "geometry": { "type": "Point", "coordinates": [ -5.310424, 35.8902778 ] } },
{ "type": "Feature", "properties": { "scalerank": 7, "featurecla": "Port", "name": "Melilla", "website": "www.puertodemelilla.es", "natlscale": 10.0, "ne_id": 1730088001 }, "geometry": { "type": "Point", "coordinates": [ -2.9228504, 35.28 ] } },
{ "type": "Feature", "properties": { "scalerank": 7, "featurecla": "Port", "name": "San Sebastian de la Gomera", "website": null, "natlscale": 10.0, "ne_id": 1730088003 }, "geometry": { "type": "Point", "coordinates": [ -17.1051237, 28.0880556 ] } },
{ "type": "Feature", "properties": { "scalerank": 7, "featurecla": "Port", "name": "Santa Cruz de La Palma", "website": null, "natlscale": 10.0, "ne_id": 1730088005 }, "geometry": { "type": "Point", "coordinates": [ -17.7666667, 28.6758333 ] } },
{ "type": "Feature", "properties": { "scalerank": 7, "featurecla": "Port", "name": "Parnu", "website": "www.transcom.ee", "natlscale": 10.0, "ne_id": 1730088007 }, "geometry": { "type": "Point", "coordinates": [ 24.4746172, 58.3811111 ] } },
{ "type": "Feature", "properties": { "scalerank": 7, "featurecla": "Port", "name": "Kuopio", "website": null, "natlscale": 10.0, "ne_id": 1730088011 }, "geometry": { "type": "Point", "coordinates": [ 27.6898704, 62.8883333 ] } },
{ "type": "Feature", "properties": { "scalerank": 7, "featurecla": "Port", "name": "Joensuu", "website": "www.jns.fi", "natlscale": 10.0, "ne_id": 1730088013 }, "geometry": { "type": "Point", "coordinates": [ 29.7770907, 62.6044444 ] } },
{ "type": "Feature", "properties": { "scalerank": 7, "featurecla": "Port", "name": "Varkaus", "website": null, "natlscale": 10.0, "ne_id": 1730088015 }, "geometry": { "type": "Point", "coordinates": [ 27.8747939, 62.3125 ] } },
{ "type": "Feature", "properties": { "scalerank": 7, "featurecla": "Port", "name": "Savusavu", "website": "www.fijiports.com.fj", "natlscale": 10.0, "ne_id": 1730088017 }, "geometry": { "type": "Point", "coordinates": [ 179.309364, -16.8177778 ] } },
{ "type": "Feature", "properties": { "scalerank": 7, "featurecla": "Port", "name": "Cherbourg", "website": "www.ville-cherbourg.fr/fr/ville_maritime/port_de_plaisance/", "natlscale": 10.0, "ne_id": 1730088019 }, "geometry": { "type": "Point", "coordinates": [ -1.6203769, 49.6463889 ] } },
{ "type": "Feature", "properties": { "scalerank": 7, "featurecla": "Port", "name": "Caen", "website": "www.caen.port.fr", "natlscale": 10.0, "ne_id": 1730088021 }, "geometry": { "type": "Point", "coordinates": [ -0.326384, 49.1905556 ] } },
{ "type": "Feature", "properties": { "scalerank": 7, "featurecla": "Port", "name": "Calvi", "website": null, "natlscale": 10.0, "ne_id": 1730088023 }, "geometry": { "type": "Point", "coordinates": [ 8.7553004, 42.5658333 ] } },
{ "type": "Feature", "properties": { "scalerank": 7, "featurecla": "Port", "name": "Propriano", "website": "www.corse-du-sud.cci.fr", "natlscale": 10.0, "ne_id": 1730088025 }, "geometry": { "type": "Point", "coordinates": [ 8.9003534, 41.6769444 ] } },
{ "type": "Feature", "properties": { "scalerank": 7, "featurecla": "Port", "name": "Quimper", "website": null, "natlscale": 10.0, "ne_id": 1730088029 }, "geometry": { "type": "Point", "coordinates": [ -4.1081272, 47.9894444 ] } },
{ "type": "Feature", "properties": { "scalerank": 7, "featurecla": "Port", "name": "Vannes", "website": null, "natlscale": 10.0, "ne_id": 1730088031 }, "geometry": { "type": "Point", "coordinates": [ -2.7563604, 47.6438889 ] } },
{ "type": "Feature", "properties": { "scalerank": 7, "featurecla": "Port", "name": "Yap", "website": null, "natlscale": 10.0, "ne_id": 1730088033 }, "geometry": { "type": "Point", "coordinates": [ 138.1194935, 9.5133333 ] } },
{ "type": "Feature", "properties": { "scalerank": 7, "featurecla": "Port", "name": "Bristol", "website": "www.bristolport.co.uk", "natlscale": 10.0, "ne_id": 1730088035 }, "geometry": { "type": "Point", "coordinates": [ -2.7077739, 51.4988889 ] } },
{ "type": "Feature", "properties": { "scalerank": 7, "featurecla": "Port", "name": "Hull", "website": "www.abports.co.uk/custinfo/ports/hull.htm", "natlscale": 10.0, "ne_id": 1730088037 }, "geometry": { "type": "Point", "coordinates": [ -0.2851001, 53.7436111 ] } },
{ "type": "Feature", "properties": { "scalerank": 7, "featurecla": "Port", "name": "Newcastle upon Tyne", "website": null, "natlscale": 10.0, "ne_id": 1730088039 }, "geometry": { "type": "Point", "coordinates": [ -1.5909305, 54.965 ] } },
{ "type": "Feature", "properties": { "scalerank": 7, "featurecla": "Port", "name": "Tyne", "website": "www.portoftyne.com", "natlscale": 10.0, "ne_id": 1730088041 }, "geometry": { "type": "Point", "coordinates": [ -1.4409305, 54.9944444 ] } },
{ "type": "Feature", "properties": { "scalerank": 7, "featurecla": "Port", "name": "Rochester", "website": "www.thamesport.co.uk", "natlscale": 10.0, "ne_id": 1730088043 }, "geometry": { "type": "Point", "coordinates": [ 0.6858068, 51.4347222 ] } },
{ "type": "Feature", "properties": { "scalerank": 7, "featurecla": "Port", "name": "Tema", "website": "www.ghanaports.gov.gh", "natlscale": 10.0, "ne_id": 1730088047 }, "geometry": { "type": "Point", "coordinates": [ 0.0074205, 5.6319444 ] } },
{ "type": "Feature", "properties": { "scalerank": 7, "featurecla": "Port", "name": "Alexandroupolis", "website": null, "natlscale": 10.0, "ne_id": 1730088049 }, "geometry": { "type": "Point", "coordinates": [ 25.8891637, 40.8413889 ] } },
{ "type": "Feature", "properties": { "scalerank": 7, "featurecla": "Port", "name": "Kos", "website": null, "natlscale": 10.0, "ne_id": 1730088051 }, "geometry": { "type": "Point", "coordinates": [ 27.2898704, 36.8944444 ] } },
{ "type": "Feature", "properties": { "scalerank": 7, "featurecla": "Port", "name": "Paros", "website": null, "natlscale": 10.0, "ne_id": 1730088053 }, "geometry": { "type": "Point", "coordinates": [ 25.1507067, 37.0877778 ] } },
{ "type": "Feature", "properties": { "scalerank": 7, "featurecla": "Port", "name": "Samos", "website": null, "natlscale": 10.0, "ne_id": 1730088055 }, "geometry": { "type": "Point", "coordinates": [ 26.9666667, 37.7544444 ] } },
{ "type": "Feature", "properties": { "scalerank": 7, "featurecla": "Port", "name": "Nanortalik", "website": "www.ral.gl", "natlscale": 10.0, "ne_id": 1730088057 }, "geometry": { "type": "Point", "coordinates": [ -45.2381036, 60.1397222 ] } },
{ "type": "Feature", "properties": { "scalerank": 7, "featurecla": "Port", "name": "Qaanaaq", "website": null, "natlscale": 10.0, "ne_id": 1730088059 }, "geometry": { "type": "Point", "coordinates": [ -69.2351001, 77.4669444 ] } },
{ "type": "Feature", "properties": { "scalerank": 7, "featurecla": "Port", "name": "New Amsterdam", "website": "www.gnsc.com", "natlscale": 10.0, "ne_id": 1730088061 }, "geometry": { "type": "Point", "coordinates": [ -57.5217903, 6.2377778 ] } },
{ "type": "Feature", "properties": { "scalerank": 7, "featurecla": "Port", "name": "La Ceiba", "website": "www.enp.hn", "natlscale": 10.0, "ne_id": 1730088065 }, "geometry": { "type": "Point", "coordinates": [ -86.7568905, 15.7938889 ] } },
{ "type": "Feature", "properties": { "scalerank": 7, "featurecla": "Port", "name": "Tela", "website": "www.enp.hn", "natlscale": 10.0, "ne_id": 1730088067 }, "geometry": { "type": "Point", "coordinates": [ -87.4558304, 15.7838889 ] } },
{ "type": "Feature", "properties": { "scalerank": 7, "featurecla": "Port", "name": "Mali Losinj", "website": null, "natlscale": 10.0, "ne_id": 1730088069 }, "geometry": { "type": "Point", "coordinates": [ 14.4575972, 44.5383333 ] } },
{ "type": "Feature", "properties": { "scalerank": 7, "featurecla": "Port", "name": "Jacmel", "website": "www.apn.gouv.ht", "natlscale": 10.0, "ne_id": 1730088071 }, "geometry": { "type": "Point", "coordinates": [ -72.5359835, 18.2316667 ] } },
{ "type": "Feature", "properties": { "scalerank": 7, "featurecla": "Port", "name": "Jeremie", "website": "www.apn.gouv.ht", "natlscale": 10.0, "ne_id": 1730088073 }, "geometry": { "type": "Point", "coordinates": [ -74.1070671, 18.6436111 ] } },
{ "type": "Feature", "properties": { "scalerank": 7, "featurecla": "Port", "name": "Sorong", "website": null, "natlscale": 10.0, "ne_id": 1730088075 }, "geometry": { "type": "Point", "coordinates": [ 131.0203769, -1.3075 ] } },
{ "type": "Feature", "properties": { "scalerank": 7, "featurecla": "Port", "name": "Lhokseumawe", "website": "www.inaport1.co.id", "natlscale": 10.0, "ne_id": 1730088077 }, "geometry": { "type": "Point", "coordinates": [ 97.142874, 5.1666667 ] } },
{ "type": "Feature", "properties": { "scalerank": 7, "featurecla": "Port", "name": "Nunukan", "website": null, "natlscale": 10.0, "ne_id": 1730088079 }, "geometry": { "type": "Point", "coordinates": [ 117.654947, 4.1455556 ] } },
{ "type": "Feature", "properties": { "scalerank": 7, "featurecla": "Port", "name": "Panjang", "website": "portal.inaport2.co.id", "natlscale": 10.0, "ne_id": 1730088083 }, "geometry": { "type": "Point", "coordinates": [ 105.3070671, -5.4602778 ] } },
{ "type": "Feature", "properties": { "scalerank": 7, "featurecla": "Port", "name": "Tanjung Priok", "website": "www.priokport.co.id", "natlscale": 10.0, "ne_id": 1730088085 }, "geometry": { "type": "Point", "coordinates": [ 106.8904005, -6.1013889 ] } },
{ "type": "Feature", "properties": { "scalerank": 7, "featurecla": "Port", "name": "Mangalore", "website": "www.newmangalore-port.com", "natlscale": 10.0, "ne_id": 1730088087 }, "geometry": { "type": "Point", "coordinates": [ 74.8074205, 12.9269444 ] } },
{ "type": "Feature", "properties": { "scalerank": 7, "featurecla": "Port", "name": "Porbandar", "website": "www.gmbports.org", "natlscale": 10.0, "ne_id": 1730088089 }, "geometry": { "type": "Point", "coordinates": [ 69.5873969, 21.6394444 ] } },
{ "type": "Feature", "properties": { "scalerank": 7, "featurecla": "Port", "name": "Ratnagiri", "website": null, "natlscale": 10.0, "ne_id": 1730088091 }, "geometry": { "type": "Point", "coordinates": [ 73.2717903, 17.0019444 ] } },
{ "type": "Feature", "properties": { "scalerank": 7, "featurecla": "Port", "name": "Bantry", "website": "bantrybayport.com", "natlscale": 10.0, "ne_id": 1730088093 }, "geometry": { "type": "Point", "coordinates": [ -9.4561837, 51.6805556 ] } },
{ "type": "Feature", "properties": { "scalerank": 7, "featurecla": "Port", "name": "Wexford", "website": null, "natlscale": 10.0, "ne_id": 1730088095 }, "geometry": { "type": "Point", "coordinates": [ -6.4561837, 52.3411111 ] } },
{ "type": "Feature", "properties": { "scalerank": 7, "featurecla": "Port", "name": "Khorramshahr", "website": "www.khport.ir", "natlscale": 10.0, "ne_id": 1730088097 }, "geometry": { "type": "Point", "coordinates": [ 48.1854535, 30.4325 ] } },
{ "type": "Feature", "properties": { "scalerank": 7, "featurecla": "Port", "name": "Djupivogur", "website": "www.djupivogur.is", "natlscale": 10.0, "ne_id": 1730088101 }, "geometry": { "type": "Point", "coordinates": [ -14.2865136, 64.6605556 ] } },
{ "type": "Feature", "properties": { "scalerank": 7, "featurecla": "Port", "name": "Faskrudsfjordur", "website": null, "natlscale": 10.0, "ne_id": 1730088103 }, "geometry": { "type": "Point", "coordinates": [ -14.0088339, 64.9297222 ] } },
{ "type": "Feature", "properties": { "scalerank": 7, "featurecla": "Port", "name": "Raufarhofn", "website": "www.raufarhofn.is", "natlscale": 10.0, "ne_id": 1730088105 }, "geometry": { "type": "Point", "coordinates": [ -15.9414605, 66.4563889 ] } },
{ "type": "Feature", "properties": { "scalerank": 7, "featurecla": "Port", "name": "Pantelleria", "website": null, "natlscale": 10.0, "ne_id": 1730088107 }, "geometry": { "type": "Point", "coordinates": [ 11.937927, 36.8333333 ] } },
{ "type": "Feature", "properties": { "scalerank": 7, "featurecla": "Port", "name": "Catania", "website": "www.porto.catania.it", "natlscale": 10.0, "ne_id": 1730088109 }, "geometry": { "type": "Point", "coordinates": [ 15.0909305, 37.4958333 ] } },
{ "type": "Feature", "properties": { "scalerank": 7, "featurecla": "Port", "name": "Fiumicino", "website": null, "natlscale": 10.0, "ne_id": 1730088111 }, "geometry": { "type": "Point", "coordinates": [ 12.2354535, 41.7558333 ] } },
{ "type": "Feature", "properties": { "scalerank": 7, "featurecla": "Port", "name": "Lampedusa", "website": null, "natlscale": 10.0, "ne_id": 1730088113 }, "geometry": { "type": "Point", "coordinates": [ 12.6024735, 35.4991667 ] } },
{ "type": "Feature", "properties": { "scalerank": 7, "featurecla": "Port", "name": "Manfredonia", "website": null, "natlscale": 10.0, "ne_id": 1730088115 }, "geometry": { "type": "Point", "coordinates": [ 15.9253239, 41.6241667 ] } },
{ "type": "Feature", "properties": { "scalerank": 7, "featurecla": "Port", "name": "Ocho Rios", "website": "www.portjam.com", "natlscale": 10.0, "ne_id": 1730088119 }, "geometry": { "type": "Point", "coordinates": [ -77.1067138, 18.4102778 ] } },
{ "type": "Feature", "properties": { "scalerank": 7, "featurecla": "Port", "name": "Port Antonio", "website": "www.portjam.com", "natlscale": 10.0, "ne_id": 1730088121 }, "geometry": { "type": "Point", "coordinates": [ -76.4517668, 18.1811111 ] } },
{ "type": "Feature", "properties": { "scalerank": 7, "featurecla": "Port", "name": "Nishinoomote", "website": "www.city.nishinoomote.kagoshima.jp", "natlscale": 10.0, "ne_id": 1730088123 }, "geometry": { "type": "Point", "coordinates": [ 130.9856302, 30.7316667 ] } },
{ "type": "Feature", "properties": { "scalerank": 7, "featurecla": "Port", "name": "Akita", "website": "www.city.akita.akita.jp/city/in/hb/port", "natlscale": 10.0, "ne_id": 1730088125 }, "geometry": { "type": "Point", "coordinates": [ 140.0398704, 39.7622222 ] } },
{ "type": "Feature", "properties": { "scalerank": 7, "featurecla": "Port", "name": "Hachinohe", "website": "www.pref.aomori.lg.jp/kowankuko/english/minato/hachinohe/hachinohe.htm", "natlscale": 10.0, "ne_id": 1730088127 }, "geometry": { "type": "Point", "coordinates": [ 141.5235571, 40.5458333 ] } },
{ "type": "Feature", "properties": { "scalerank": 7, "featurecla": "Port", "name": "Ishigaki", "website": null, "natlscale": 10.0, "ne_id": 1730088129 }, "geometry": { "type": "Point", "coordinates": [ 124.1512367, 24.3355556 ] } },
{ "type": "Feature", "properties": { "scalerank": 7, "featurecla": "Port", "name": "Matsuyama", "website": null, "natlscale": 10.0, "ne_id": 1730088131 }, "geometry": { "type": "Point", "coordinates": [ 132.693404, 33.8552778 ] } },
{ "type": "Feature", "properties": { "scalerank": 7, "featurecla": "Port", "name": "Sakata", "website": "www.port-of-sakata.jp", "natlscale": 10.0, "ne_id": 1730088133 }, "geometry": { "type": "Point", "coordinates": [ 139.8035336, 38.9394444 ] } },
{ "type": "Feature", "properties": { "scalerank": 7, "featurecla": "Port", "name": "Takamatsu", "website": null, "natlscale": 10.0, "ne_id": 1730088137 }, "geometry": { "type": "Point", "coordinates": [ 134.0533569, 34.3552778 ] } },
{ "type": "Feature", "properties": { "scalerank": 7, "featurecla": "Port", "name": "Wakkanai", "website": "www.city.wakkanai.hokkaido.jp", "natlscale": 10.0, "ne_id": 1730088139 }, "geometry": { "type": "Point", "coordinates": [ 141.6891637, 45.4105556 ] } },
{ "type": "Feature", "properties": { "scalerank": 7, "featurecla": "Port", "name": "Tottori", "website": "www.city.tottori.lg.jp", "natlscale": 10.0, "ne_id": 1730088141 }, "geometry": { "type": "Point", "coordinates": [ 134.187927, 35.5402778 ] } },
{ "type": "Feature", "properties": { "scalerank": 7, "featurecla": "Port", "name": "Lamu", "website": "www.kpa.co.ke", "natlscale": 10.0, "ne_id": 1730088143 }, "geometry": { "type": "Point", "coordinates": [ 40.9015901, -2.2680556 ] } },
{ "type": "Feature", "properties": { "scalerank": 7, "featurecla": "Port", "name": "Gunsan", "website": "gunsan.mltm.go.kr/eng", "natlscale": 10.0, "ne_id": 1730088145 }, "geometry": { "type": "Point", "coordinates": [ 126.5881037, 35.9597222 ] } },
{ "type": "Feature", "properties": { "scalerank": 7, "featurecla": "Port", "name": "Pohang", "website": null, "natlscale": 10.0, "ne_id": 1730088147 }, "geometry": { "type": "Point", "coordinates": [ 129.4028269, 36.0197222 ] } },
{ "type": "Feature", "properties": { "scalerank": 7, "featurecla": "Port", "name": "Samcheok", "website": "donghae.momaf.go.kr", "natlscale": 10.0, "ne_id": 1730088149 }, "geometry": { "type": "Point", "coordinates": [ 129.1882803, 37.4336111 ] } },
{ "type": "Feature", "properties": { "scalerank": 7, "featurecla": "Port", "name": "Sokcho", "website": "donghae.momaf.go.kr", "natlscale": 10.0, "ne_id": 1730088151 }, "geometry": { "type": "Point", "coordinates": [ 128.5923439, 38.2069444 ] } },
{ "type": "Feature", "properties": { "scalerank": 7, "featurecla": "Port", "name": "Ulsan", "website": "ulsan.mltm.go.kr", "natlscale": 10.0, "ne_id": 1730088155 }, "geometry": { "type": "Point", "coordinates": [ 129.3856302, 35.4877778 ] } },
{ "type": "Feature", "properties": { "scalerank": 7, "featurecla": "Port", "name": "Tripoli", "website": "www.tripoliport.com", "natlscale": 10.0, "ne_id": 1730088157 }, "geometry": { "type": "Point", "coordinates": [ 35.8191402, 34.4552778 ] } },
{ "type": "Feature", "properties": { "scalerank": 7, "featurecla": "Port", "name": "Buchanan", "website": "www.nationalportauthorityliberia.org", "natlscale": 10.0, "ne_id": 1730088159 }, "geometry": { "type": "Point", "coordinates": [ -10.0526502, 5.8580556 ] } },
{ "type": "Feature", "properties": { "scalerank": 7, "featurecla": "Port", "name": "Tripoli", "website": "www.lpclibya.com", "natlscale": 10.0, "ne_id": 1730088161 }, "geometry": { "type": "Point", "coordinates": [ 13.1935807, 32.9075 ] } },
{ "type": "Feature", "properties": { "scalerank": 7, "featurecla": "Port", "name": "Agadir", "website": "www.marsamaroc.co.ma", "natlscale": 10.0, "ne_id": 1730088163 }, "geometry": { "type": "Point", "coordinates": [ -9.6349234, 30.4238889 ] } },
{ "type": "Feature", "properties": { "scalerank": 7, "featurecla": "Port", "name": "Al Hoceima", "website": "http://www.marsamaroc.co.ma", "natlscale": 10.0, "ne_id": 1730088165 }, "geometry": { "type": "Point", "coordinates": [ -3.9198469, 35.2477778 ] } },
{ "type": "Feature", "properties": { "scalerank": 7, "featurecla": "Port", "name": "Dakhla", "website": "www.marsamaroc.co.ma", "natlscale": 10.0, "ne_id": 1730088167 }, "geometry": { "type": "Point", "coordinates": [ -15.9338634, 23.6822222 ] } },
{ "type": "Feature", "properties": { "scalerank": 7, "featurecla": "Port", "name": "Antalaha", "website": null, "natlscale": 10.0, "ne_id": 1730088169 }, "geometry": { "type": "Point", "coordinates": [ 50.2762073, -14.9 ] } },
{ "type": "Feature", "properties": { "scalerank": 7, "featurecla": "Port", "name": "Manakara", "website": null, "natlscale": 10.0, "ne_id": 1730088173 }, "geometry": { "type": "Point", "coordinates": [ 48.0187868, -22.1425 ] } },